12:29:28.988 -> $GNRMC,162910.00,A,4531.85479,N,07336.81558,W,2.127,131.06,2207168
12:29:29.276 -> $GNRMC,162929.00,A,4531.85379,N,07336.81246,W,0.073,,220719,,,A*7B
12:29:29.343 -> $GNVTG,,T,,M,0.073,N,0.136,K,A*3D
12:29:29.376 -> $GNGGA,162929.00,4531.85379,N,07336.81246,W,1,10,3.00,82.7,M,-32.7,M,,*48
12:29:29.442 -> $GNGSA,A,3,17,19,03,22,01,,,,,,,,4.25,3.00,3.01*12
12:29:29.509 -> $GNGSA,A,3,83,82,74,66,67,,,,,,,,4.25,3.00,3.01*1D
12:29:29.542 -> $GPGSV,3,1,11,01,16,053,34,02,10,237,,03,40,073,48,06,50,234,*70
12:29:29.608 -> $GPGSV,3,2,11,11,06,072,,12,06,319,40,17,77,005,55,19,66,310,49*75
12:29:29.708 -> $GPGSV,3,3,11,22,27,053,47,24,18,297,34,28,49,159,26*43
12:29:29.741 -> $GLGSV,3,1,09,66,16,027,45,67,29,081,37,68,11,134,27,73,52,270,19*69
12:29:29.808 -> $GLGSV,3,2,09,74,29,324,31,80,23,196,23,82,36,054,46,83,65,334,39*6E
12:29:29.907 -> $GLGSV,3,3,09,84,22,268,27*59
12:29:29.940 -> $GNGLL,4531.85379,N,07336.81246,W,162929.00,A,A*69
12:29:30.273 -> $GNRMC,162930.00,A,4531.85375,N,07336.81252,W,0.436,21.18,220719,,,A*5B
12:29:30.339 -> $GNVTG,21.18,T,,M,0.436,N,0.808,K,A*18
12:29:30.372 -> $GNGGA,162930.00,4531.85375,N,07336.81252,W,1,10,3.00,82.1,M,-32.7,M,,*4F
12:29:30.439 -> $GNGSA,A,3,17,19,03,22,01,,,,,,,,4.25,3.00,3.02*11
12:29:30.505 -> $GNGSA,A,3,83,82,74,66,67,,,,,,,,4.25,3.00,3.02*1E
12:29:30.572 -> $GPGSV,3,1,12,01,16,053,30,02,10,237,,03,40,073,50,06,50,234,*7E
12:29:30.638 -> $GPGSV,3,2,12,11,06,072,,12,06,319,36,17,77,005,52,19,66,310,49*70
12:29:30.705 -> $GPGSV,3,3,12,22,27,053,42,24,18,297,29,25,,,33,28,49,159,26*4E
12:29:30.771 -> $GLGSV,3,1,09,66,16,027,46,67,29,081,48,68,11,134,27,73,52,270,30*69
12:29:30.838 -> $GLGSV,3,2,09,74,29,324,40,80,23,196,23,82,36,054,44,83,65,334,40*64
12:29:30.904 -> $GLGSV,3,3,09,84,22,268,27*59
12:29:30.937 -> $GNGLL,4531.85375,N,07336.81252,W,162930.00,A,A*68
12:29:31.236 -> $GNRMC,162931.00,A,4531.85355,N,07336.81260,W,0.199,,220719,,,A*7D
12:29:31.303 -> $GNVTG,,T,,M,0.199,N,0.368,K,A*31
12:29:31.336 -> $GNGGA,162931.00,4531.85355,N,07336.81260,W,1,10,3.00,81.6,M,-32.7,M,,*49
12:29:31.402 -> $GNGSA,A,3,17,19,03,22,01,,,,,,,,4.25,3.00,3.02*11
12:29:31.468 -> $GNGSA,A,3,83,82,74,66,67,,,,,,,,4.25,3.00,3.02*1E
12:29:31.502 -> $GPGSV,3,1,11,01,16,053,39,02,10,237,,03,40,073,49,06,50,234,*7C
12:29:31.601 -> $GPGSV,3,2,11,11,06,072,,12,06,319,33,17,77,005,54,19,66,310,50*78
12:29:31.701 -> $GPGSV,3,3,11,22,27,053,47,24,18,296,31,28,49,159,22*43
12:29:31.734 -> $GLGSV,3,1,09,66,16,027,47,67,29,081,44,68,11,134,26,73,52,270,31*64
12:29:31.801 -> $GLGSV,3,2,09,74,29,324,43,80,23,196,23,82,36,054,45,83,65,334,40*66
12:29:31.900 -> $GLGSV,3,3,09,84,22,268,26*58
12:29:31.934 -> $GNGLL,4531.85355,N,07336.81260,W,162931.00,A,A*6A
12:29:32.266 -> $GNRMC,162932.00,A,4531.85346,N,07336.81268,W,0.159,,220719,,,A*78
12:29:32.332 -> $GNVTG,,T,,M,0.159,N,0.295,K,A*3E
12:29:32.366 -> $GNGGA,162932.00,4531.85346,N,07336.81268,W,1,10,3.00,81.3,M,-32.7,M,,*45
12:29:32.432 -> $GNGSA,A,3,17,19,03,22,01,,,,,,,,4.25,3.00,3.02*11
12:29:32.499 -> $GNGSA,A,3,83,82,74,66,67,,,,,,,,4.25,3.00,3.02*1E
12:29:32.532 -> $GPGSV,3,1,11,01,16,053,41,02,10,237,,03,40,073,50,06,50,234,*7B
12:29:32.598 -> $GPGSV,3,2,11,11,06,072,,12,06,319,34,17,77,005,52,19,66,310,50*79
12:29:32.698 -> $GPGSV,3,3,11,22,27,053,42,24,18,296,,28,49,159,21*47
12:29:32.731 -> $GLGSV,3,1,09,66,16,027,43,67,29,081,47,68,11,134,27,73,52,270,31*62
12:29:32.798 -> $GLGSV,3,2,09,74,29,324,42,80,23,196,23,82,36,054,46,83,65,334,40*64
12:29:32.897 -> $GLGSV,3,3,09,84,22,268,25*5B
12:29:32.931 -> $GNGLL,4531.85346,N,07336.81268,W,162932.00,A,A*63
12:29:33.263 -> $GNRMC,162933.00,A,4531.85331,N,07336.81281,W,0.134,,220719,,,A*75
12:29:33.330 -> $GNVTG,,T,,M,0.134,N,0.248,K,A*35
12:29:33.363 -> $GNGGA,162933.00,4531.85331,N,07336.81281,W,1,10,3.00,80.9,M,-32.7,M,,*48
12:29:33.429 -> $GNGSA,A,3,17,19,03,22,01,,,,,,,,4.25,3.00,3.02*11
12:29:33.496 -> $GNGSA,A,3,83,82,74,66,67,,,,,,,,4.25,3.00,3.02*1E
12:29:33.529 -> $GPGSV,3,1,11,01,16,053,47,02,10,237,,03,40,073,51,06,50,234,*7C
12:29:33.595 -> $GPGSV,3,2,11,11,06,072,,12,06,319,39,17,77,005,54,19,66,310,49*7A
12:29:33.695 -> $GPGSV,3,3,11,22,27,053,47,24,18,296,,28,49,159,19*49
12:29:33.728 -> $GLGSV,3,1,09,66,16,027,43,67,29,081,42,68,11,134,27,73,52,270,24*63
12:29:33.795 -> $GLGSV,3,2,09,74,29,324,39,80,23,196,24,82,36,054,47,83,65,334,37*6E
12:29:33.894 -> $GLGSV,3,3,09,84,22,268,26*58
12:29:33.928 -> $GNGLL,4531.85331,N,07336.81281,W,162933.00,A,A*65
12:29:34.260 -> $GNRMC,162934.00,A,4531.85306,N,07336.81296,W,0.241,,220719,,,A*71
12:29:34.326 -> $GNVTG,,T,,M,0.241,N,0.447,K,A*3D
12:29:34.360 -> $GNGGA,162934.00,4531.85306,N,07336.81296,W,1,10,3.00,80.3,M,-32.7,M,,*47
12:29:34.426 -> $GNGSA,A,3,17,19,03,22,01,,,,,,,,4.26,3.00,3.02*12
12:29:34.492 -> $GNGSA,A,3,83,82,74,66,67,,,,,,,,4.26,3.00,3.02*1D
12:29:34.525 -> $GPGSV,3,1,11,01,16,053,40,02,10,237,,03,40,073,47,06,50,234,*7C
12:29:34.592 -> $GPGSV,3,2,11,11,06,072,,12,06,319,42,17,77,005,54,19,66,310,49*76
12:29:34.691 -> $GPGSV,3,3,11,22,27,053,47,24,18,296,,28,49,159,24*47
12:29:34.724 -> $GLGSV,3,1,09,66,16,027,40,67,29,081,36,68,11,134,27,73,52,270,26*61
12:29:34.790 -> $GLGSV,3,2,09,74,29,324,38,80,23,196,22,82,36,054,40,83,65,334,39*60
12:29:34.890 -> $GLGSV,3,3,09,84,22,268,27*59
12:29:34.923 -> $GNGLL,4531.85306,N,07336.81296,W,162934.00,A,A*60
12:29:35.255 -> $GNRMC,162935.00,A,4531.85270,N,07336.81308,W,0.307,,220719,,,A*75
12:29:35.322 -> $GNVTG,,T,,M,0.307,N,0.569,K,A*33
12:29:35.355 -> $GNGGA,162935.00,4531.85270,N,07336.81308,W,1,10,3.00,79.7,M,-32.7,M,,*42
12:29:35.422 -> $GNGSA,A,3,17,19,03,22,01,,,,,,,,4.26,3.00,3.02*12
12:29:35.488 -> $GNGSA,A,3,83,82,74,66,67,,,,,,,,4.26,3.00,3.02*1D
12:29:35.521 -> $GPGSV,3,1,11,01,16,053,41,02,10,237,,03,40,073,50,06,50,234,*7B
12:29:35.588 -> $GPGSV,3,2,11,11,06,072,,12,06,319,42,17,77,005,55,19,66,310,48*76
12:29:35.687 -> $GPGSV,3,3,11,22,27,053,48,24,18,296,31,28,48,159,27*48
12:29:35.721 -> $GLGSV,3,1,09,66,16,027,38,67,29,081,42,68,11,134,27,73,52,270,30*6A
12:29:35.787 -> $GLGSV,3,2,09,74,29,324,33,80,23,196,21,82,36,054,43,83,65,334,36*64
12:29:35.887 -> $GLGSV,3,3,09,84,22,268,28*56
12:29:35.920 -> $GNGLL,4531.85270,N,07336.81308,W,162935.00,A,A*67
12:29:36.252 -> $GNRMC,162936.00,A,4531.85246,N,07336.81322,W,0.585,297.81,220719,,,A*6C
12:29:36.319 -> $GNVTG,297.81,T,,M,0.585,N,1.083,K,A*24
12:29:36.352 -> $GNGGA,162936.00,4531.85246,N,07336.81322,W,1,10,3.00,79.0,M,-32.7,M,,*4B
12:29:36.419 -> $GNGSA,A,3,17,19,03,22,01,,,,,,,,4.26,3.00,3.02*12
12:29:36.485 -> $GNGSA,A,3,83,82,74,66,67,,,,,,,,4.26,3.00,3.02*1D
12:29:36.552 -> $GPGSV,3,1,11,01,16,053,40,02,10,237,,03,40,073,49,06,50,234,*72
12:29:36.618 -> $GPGSV,3,2,11,11,06,072,,12,06,319,40,17,77,005,52,19,66,310,48*73
12:29:36.684 -> $GPGSV,3,3,11,22,27,053,46,24,18,296,32,28,48,159,27*45
12:29:36.751 -> $GLGSV,3,1,09,66,16,027,33,67,29,081,42,68,11,134,26,73,52,270,31*61
12:29:36.817 -> $GLGSV,3,2,09,74,29,324,38,80,23,196,21,82,36,054,43,83,65,334,36*6F
12:29:36.884 -> $GLGSV,3,3,09,84,22,268,27*59
12:29:36.917 -> $GNGLL,4531.85246,N,07336.81322,W,162936.00,A,A*69
12:29:37.250 -> $GNRMC,162937.00,A,4531.85230,N,07336.81327,W,0.209,,220719,,,A*71
12:29:37.316 -> $GNVTG,,T,,M,0.209,N,0.388,K,A*35
12:29:37.349 -> $GNGGA,162937.00,4531.85230,N,07336.81327,W,1,10,3.00,78.6,M,-32.7,M,,*49
12:29:37.416 -> $GNGSA,A,3,17,19,03,22,01,,,,,,,,4.26,3.00,3.02*12
12:29:37.482 -> $GNGSA,A,3,83,82,74,66,67,,,,,,,,4.26,3.00,3.02*1D
12:29:37.515 -> $GPGSV,3,1,11,01,16,053,41,02,10,237,,03,40,073,51,06,50,234,*7A
12:29:37.582 -> $GPGSV,3,2,11,11,06,072,,12,06,319,40,17,77,005,54,19,66,310,48*75
12:29:37.682 -> $GPGSV,3,3,11,22,27,053,46,24,18,296,34,28,48,159,27*43
12:29:37.715 -> $GLGSV,3,1,09,66,16,027,34,67,29,081,47,68,11,134,25,73,52,270,26*66
12:29:37.781 -> $GLGSV,3,2,09,74,29,324,22,80,23,196,21,82,36,054,41,83,65,334,36*66
12:29:37.881 -> $GLGSV,3,3,09,84,22,268,26*58
12:29:37.914 -> $GNGLL,4531.85230,N,07336.81327,W,162937.00,A,A*6C
12:29:38.247 -> $GNRMC,162938.00,A,4531.85222,N,07336.81329,W,0.043,,220719,,,A*7F
12:29:38.313 -> $GNVTG,,T,,M,0.043,N,0.080,K,A*32
12:29:38.346 -> $GNGGA,162938.00,4531.85222,N,07336.81329,W,1,10,3.01,78.5,M,-32.7,M,,*49
12:29:38.413 -> $GNGSA,A,3,17,19,03,22,01,,,,,,,,4.26,3.01,3.02*13
12:29:38.479 -> $GNGSA,A,3,83,82,74,66,67,,,,,,,,4.26,3.01,3.02*1C
12:29:38.512 -> $GPGSV,3,1,11,01,16,053,42,02,10,237,,03,40,073,49,06,50,234,*70
12:29:38.579 -> $GPGSV,3,2,11,11,06,072,,12,06,319,42,17,77,005,52,19,66,310,48*71
12:29:38.679 -> $GPGSV,3,3,11,22,27,053,48,24,18,296,33,28,48,159,27*4A
12:29:38.712 -> $GLGSV,3,1,09,66,16,027,34,67,29,081,42,68,11,134,26,73,52,270,25*63
12:29:38.778 -> $GLGSV,3,2,09,74,29,324,31,80,23,196,22,82,36,054,47,83,65,334,37*60
12:29:38.878 -> $GLGSV,3,3,09,84,22,268,26*58
12:29:38.911 -> $GNGLL,4531.85222,N,07336.81329,W,162938.00,A,A*6E
12:29:39.243 -> $GNRMC,162939.00,A,4531.85203,N,07336.81335,W,0.027,,220719,,,A*72
12:29:39.310 -> $GNVTG,,T,,M,0.027,N,0.051,K,A*3C
12:29:39.343 -> $GNGGA,162939.00,4531.85203,N,07336.81335,W,1,10,3.42,78.2,M,-32.7,M,,*46
12:29:39.410 -> $GNGSA,A,3,17,19,03,22,01,,,,,,,,4.59,3.42,3.06*18
12:29:39.476 -> $GNGSA,A,3,83,82,74,66,67,,,,,,,,4.59,3.42,3.06*17
12:29:39.509 -> $GPGSV,3,1,11,01,16,053,42,02,10,237,,03,40,073,51,06,50,234,*79
12:29:39.576 -> $GPGSV,3,2,11,11,06,072,,12,06,319,42,17,77,005,54,19,66,310,48*77
12:29:39.675 -> $GPGSV,3,3,11,22,27,053,45,24,18,296,32,28,48,159,27*46
12:29:39.708 -> $GLGSV,3,1,09,66,16,027,37,67,29,081,46,68,11,134,26,73,52,270,23*62
12:29:39.775 -> $GLGSV,3,2,09,74,29,324,25,80,23,196,23,82,36,054,41,83,65,334,37*62
12:29:39.875 -> $GLGSV,3,3,09,84,22,268,28*56
12:29:39.908 -> $GNGLL,4531.85203,N,07336.81335,W,162939.00,A,A*61
12:29:40.240 -> $GNRMC,162940.00,A,4531.85199,N,07336.81340,W,0.075,,220719,,,A*79
12:29:40.307 -> $GNVTG,,T,,M,0.075,N,0.140,K,A*3A
12:29:40.340 -> $GNGGA,162940.00,4531.85199,N,07336.81340,W,1,10,3.01,78.0,M,-32.7,M,,*4F
12:29:40.407 -> $GNGSA,A,3,17,19,03,22,01,,,,,,,,4.26,3.01,3.02*13
12:29:40.473 -> $GNGSA,A,3,83,82,74,66,67,,,,,,,,4.26,3.01,3.02*1C
12:29:40.506 -> $GPGSV,3,1,11,01,16,053,41,02,10,237,,03,40,073,45,06,50,234,*7F
12:29:40.573 -> $GPGSV,3,2,11,11,06,072,,12,06,319,41,17,77,005,55,19,66,310,48*75
12:29:40.672 -> $GPGSV,3,3,11,22,27,053,49,24,18,296,32,28,48,159,27*4A
12:29:40.706 -> $GLGSV,3,1,09,66,16,027,39,67,29,081,42,68,11,134,27,73,52,270,21*6B
12:29:40.772 -> $GLGSV,3,2,09,74,29,324,31,80,23,196,24,82,36,054,48,83,65,334,38*66
12:29:40.872 -> $GLGSV,3,3,09,84,22,268,28*56
12:29:40.905 -> $GNGLL,4531.85199,N,07336.81340,W,162940.00,A,A*6D
12:29:41.237 -> $GNRMC,162941.00,A,4531.85191,N,07336.81342,W,0.083,,220719,,,A*7B
12:29:41.304 -> $GNVTG,,T,,M,0.083,N,0.153,K,A*31
12:29:41.337 -> $GNGGA,162941.00,4531.85191,N,07336.81342,W,1,10,3.01,77.7,M,-32.7,M,,*4C
12:29:41.403 -> $GNGSA,A,3,17,19,03,22,01,,,,,,,,4.26,3.01,3.02*13
12:29:41.470 -> $GNGSA,A,3,83,82,74,66,67,,,,,,,,4.26,3.01,3.02*1C
12:29:41.503 -> $GPGSV,3,1,11,01,16,053,38,02,10,237,,03,40,073,51,06,50,234,*74
12:29:41.570 -> $GPGSV,3,2,11,11,06,072,,12,06,319,42,17,77,005,53,19,66,310,49*71
12:29:41.669 -> $GPGSV,3,3,11,22,27,053,44,24,18,296,32,28,48,159,27*47
12:29:41.702 -> $GLGSV,3,1,09,66,16,027,43,67,29,081,47,68,11,134,27,73,52,270,22*60
12:29:41.769 -> $GLGSV,3,2,09,74,29,324,25,80,23,196,22,82,36,054,40,83,65,334,37*62
12:29:41.869 -> $GLGSV,3,3,09,84,22,268,30*5F
12:29:41.902 -> $GNGLL,4531.85191,N,07336.81342,W,162941.00,A,A*66
12:29:42.267 -> $GNRMC,162942.00,A,4531.85188,N,07336.81342,W,0.177,,220719,,,A*7A
12:29:42.301 -> $GNVTG,,T,,M,0.177,N,0.329,K,A*34
12:29:42.334 -> $GNGGA,162942.00,4531.85188,N,07336.81342,W,1,10,3.01,77.6,M,-32.7,M,,*46
12:29:42.434 -> $GNGSA,A,3,17,19,03,22,01,,,,,,,,4.27,3.01,3.02*12
12:29:42.500 -> $GNGSA,A,3,83,82,74,66,67,,,,,,,,4.27,3.01,3.02*1D
12:29:42.533 -> $GPGSV,3,1,11,01,16,053,44,02,10,237,,03,40,073,48,06,50,234,*77
12:29:42.600 -> $GPGSV,3,2,11,11,06,072,,12,06,319,40,17,77,005,53,19,66,310,48*72
12:29:42.699 -> $GPGSV,3,3,11,22,27,053,48,24,18,296,33,28,48,159,25*48
12:29:42.732 -> $GLGSV,3,1,09,66,16,027,40,67,29,081,43,68,11,134,28,73,52,270,26*6C
12:29:42.799 -> $GLGSV,3,2,09,74,29,324,34,80,23,196,22,82,36,054,47,83,65,334,38*6A
12:29:42.899 -> $GLGSV,3,3,09,84,22,268,29*57
12:29:42.932 -> $GNGLL,4531.85188,N,07336.81342,W,162942.00,A,A*6D
12:29:43.264 -> $GNRMC,162943.00,A,4531.85181,N,07336.81345,W,0.377,,220719,,,A*77
12:29:43.331 -> $GNVTG,,T,,M,0.377,N,0.698,K,A*39
12:29:43.364 -> $GNGGA,162943.00,4531.85181,N,07336.81345,W,1,10,3.01,77.4,M,-32.7,M,,*4B
12:29:43.431 -> $GNGSA,A,3,17,19,03,22,01,,,,,,,,4.27,3.01,3.02*12
12:29:43.497 -> $GNGSA,A,3,83,82,74,66,67,,,,,,,,4.27,3.01,3.02*1D
12:29:43.530 -> $GPGSV,3,1,11,01,16,053,43,02,10,237,,03,40,073,51,06,50,234,*78
12:29:43.597 -> $GPGSV,3,2,11,11,06,072,,12,06,319,41,17,77,005,54,19,66,310,48*74
12:29:43.696 -> $GPGSV,3,3,11,22,27,053,46,24,18,296,33,28,48,159,25*46
12:29:43.730 -> $GLGSV,3,1,09,66,16,027,41,67,29,081,46,68,11,134,28,73,52,270,26*68
12:29:43.796 -> $GLGSV,3,2,09,74,29,324,24,80,23,196,21,82,36,054,37,83,65,334,38*6F
12:29:43.896 -> $GLGSV,3,3,09,84,22,268,30*5F
12:29:43.929 -> $GNGLL,4531.85181,N,07336.81345,W,162943.00,A,A*62
12:29:44.262 -> $GNRMC,162944.00,A,4531.85171,N,07336.81351,W,0.323,,220719,,,A*7B
12:29:44.328 -> $GNVTG,,T,,M,0.323,N,0.597,K,A*34
12:29:44.361 -> $GNGGA,162944.00,4531.85171,N,07336.81351,W,1,10,3.01,77.1,M,-32.7,M,,*43
12:29:44.428 -> $GNGSA,A,3,17,19,03,22,01,,,,,,,,4.27,3.01,3.02*12
12:29:44.494 -> $GNGSA,A,3,83,82,74,66,67,,,,,,,,4.27,3.01,3.02*1D
12:29:44.527 -> $GPGSV,3,1,11,01,16,053,45,02,10,237,,03,40,073,48,06,50,234,*76
12:29:44.594 -> $GPGSV,3,2,11,11,06,072,,12,06,319,40,17,77,005,53,19,66,310,48*72
12:29:44.693 -> $GPGSV,3,3,11,22,27,053,47,24,18,296,33,28,48,159,25*47
12:29:44.727 -> $GLGSV,3,1,09,66,16,027,40,67,29,081,41,68,11,134,27,73,52,270,29*6E
12:29:44.793 -> $GLGSV,3,2,09,74,29,324,36,80,23,196,22,82,36,054,48,83,65,334,38*67
12:29:44.893 -> $GLGSV,3,3,09,84,22,268,30*5F
12:29:44.926 -> $GNGLL,4531.85171,N,07336.81351,W,162944.00,A,A*6F
12:29:45.257 -> $GNRMC,162945.00,A,4531.85160,N,07336.81356,W,0.055,,220719,,,A*7F
12:29:45.323 -> $GNVTG,,T,,M,0.055,N,0.102,K,A*3E
12:29:45.357 -> $GNGGA,162945.00,4531.85160,N,07336.81356,W,1,10,3.01,76.7,M,-32.7,M,,*42
12:29:45.423 -> $GNGSA,A,3,17,19,03,22,01,,,,,,,,4.27,3.01,3.02*12
12:29:45.489 -> $GNGSA,A,3,83,82,74,66,67,,,,,,,,4.27,3.01,3.02*1D
12:29:45.522 -> $GPGSV,3,1,11,01,16,053,44,02,10,237,,03,40,073,51,06,50,234,*7F
12:29:45.588 -> $GPGSV,3,2,11,11,06,072,,12,06,319,40,17,77,005,55,19,66,310,48*74
12:29:45.688 -> $GPGSV,3,3,11,22,27,053,43,24,18,296,33,28,48,159,25*43
12:29:45.721 -> $GLGSV,3,1,09,66,16,027,40,67,29,081,45,68,12,134,26,73,52,270,30*60
12:29:45.787 -> $GLGSV,3,2,09,74,29,324,34,80,23,196,21,82,36,054,42,83,65,334,37*63
12:29:45.887 -> $GLGSV,3,3,09,84,22,268,30*5F
12:29:45.920 -> $GNGLL,4531.85160,N,07336.81356,W,162945.00,A,A*69
12:29:46.252 -> $GNRMC,162946.00,A,4531.85156,N,07336.81360,W,0.274,,220719,,,A*7D
12:29:46.319 -> $GNVTG,,T,,M,0.274,N,0.508,K,A*31
12:29:46.352 -> $GNGGA,162946.00,4531.85156,N,07336.81360,W,1,10,3.01,76.6,M,-32.7,M,,*40
12:29:46.418 -> $GNGSA,A,3,17,19,03,22,01,,,,,,,,4.27,3.01,3.02*12
12:29:46.485 -> $GNGSA,A,3,83,82,74,66,67,,,,,,,,4.27,3.01,3.02*1D
12:29:46.518 -> $GPGSV,3,1,11,01,16,053,43,02,10,237,,03,40,073,45,06,50,234,*7D
12:29:46.584 -> $GPGSV,3,2,11,11,06,072,,12,06,319,40,17,77,005,55,19,66,310,48*74
12:29:46.684 -> $GPGSV,3,3,11,22,27,053,49,24,18,296,33,28,48,159,24*48
12:29:46.717 -> $GLGSV,3,1,09,66,16,027,41,67,29,081,44,68,12,134,28,73,52,270,24*6B
12:29:46.783 -> $GLGSV,3,2,09,74,29,324,36,80,23,196,21,82,36,054,46,83,65,334,40*65
12:29:46.883 -> $GLGSV,3,3,09,84,22,268,30*5F
12:29:46.916 -> $GNGLL,4531.85156,N,07336.81360,W,162946.00,A,A*6A
12:29:47.249 -> $GNRMC,162947.00,A,4531.85155,N,07336.81367,W,0.288,,220719,,,A*7B
12:29:47.315 -> $GNVTG,,T,,M,0.288,N,0.534,K,A*3D
12:29:47.348 -> $GNGGA,162947.00,4531.85155,N,07336.81367,W,1,10,3.02,76.4,M,-32.7,M,,*44
12:29:47.415 -> $GNGSA,A,3,17,19,03,22,01,,,,,,,,4.27,3.02,3.02*11
12:29:47.481 -> $GNGSA,A,3,83,82,74,66,67,,,,,,,,4.27,3.02,3.02*1E
12:29:47.514 -> $GPGSV,3,1,11,01,16,053,41,02,10,237,,03,40,073,49,06,50,234,*73
12:29:47.581 -> $GPGSV,3,2,11,11,06,072,,12,06,319,41,17,77,005,55,19,66,310,48*75
12:29:47.681 -> $GPGSV,3,3,11,22,27,053,46,24,18,296,34,28,48,159,23*47
12:29:47.714 -> $GLGSV,3,1,09,66,16,027,41,67,29,081,45,68,12,134,28,73,52,270,22*6C
12:29:47.780 -> $GLGSV,3,2,09,74,29,324,29,80,23,196,19,82,36,054,38,83,65,334,39*67
12:29:47.880 -> $GLGSV,3,3,09,84,22,268,29*57
12:29:47.913 -> $GNGLL,4531.85155,N,07336.81367,W,162947.00,A,A*6F
12:29:48.246 -> $GNRMC,162948.00,A,4531.85148,N,07336.81373,W,0.134,,220719,,,A*79
12:29:48.312 -> $GNVTG,,T,,M,0.134,N,0.248,K,A*35
12:29:48.345 -> $GNGGA,162948.00,4531.85148,N,07336.81373,W,1,10,3.02,76.3,M,-32.7,M,,*45
12:29:48.411 -> $GNGSA,A,3,17,19,03,22,01,,,,,,,,4.27,3.02,3.03*10
12:29:48.478 -> $GNGSA,A,3,83,82,74,66,67,,,,,,,,4.27,3.02,3.03*1F
12:29:48.511 -> $GPGSV,3,1,11,01,16,053,43,02,10,237,,03,40,073,47,06,50,234,*7F
12:29:48.577 -> $GPGSV,3,2,11,11,06,072,27,12,06,319,39,17,77,005,56,19,66,310,48*7C
12:29:48.677 -> $GPGSV,3,3,11,22,27,053,47,24,18,296,34,28,48,159,22*47
12:29:48.710 -> $GLGSV,3,1,09,66,16,027,40,67,29,081,41,68,12,134,28,73,52,270,22*69
12:29:48.810 -> $GLGSV,3,2,09,74,29,324,38,80,23,196,18,82,36,054,50,83,65,334,37*66
12:29:48.876 -> $GLGSV,3,3,09,84,22,268,29*57
12:29:48.910 -> $GNGLL,4531.85148,N,07336.81373,W,162948.00,A,A*69
12:29:49.242 -> $GNRMC,162949.00,A,4531.85149,N,07336.81377,W,0.251,,220719,,,A*7D
12:29:49.341 -> $GNVTG,,T,,M,0.251,N,0.466,K,A*3F
12:29:49.375 -> $GNGGA,162949.00,4531.85149,N,07336.81377,W,1,10,3.02,76.2,M,-32.7,M,,*40
12:29:49.441 -> $GNGSA,A,3,17,19,03,22,01,,,,,,,,4.27,3.02,3.03*10
12:29:49.508 -> $GNGSA,A,3,83,82,74,66,67,,,,,,,,4.27,3.02,3.03*1F
12:29:49.541 -> $GPGSV,3,1,11,01,16,053,41,02,10,237,,03,40,073,49,06,50,234,*73
12:29:49.607 -> $GPGSV,3,2,11,11,06,072,,12,06,319,40,17,77,005,55,19,66,310,48*74
12:29:49.707 -> $GPGSV,3,3,11,22,27,053,43,24,18,296,34,28,48,159,20*41
12:29:49.740 -> $GLGSV,3,1,09,66,16,027,40,67,29,081,44,68,12,134,27,73,52,270,21*60
12:29:49.807 -> $GLGSV,3,2,09,74,29,324,40,80,23,196,15,82,36,054,47,83,65,334,36*63
12:29:49.906 -> $GLGSV,3,3,09,84,22,268,29*57
12:29:49.940 -> $GNGLL,4531.85149,N,07336.81377,W,162949.00,A,A*6D
12:29:50.239 -> $GNRMC,162950.00,A,4531.85150,N,07336.81375,W,0.234,,220719,,,A*7C
12:29:50.305 -> $GNVTG,,T,,M,0.234,N,0.433,K,A*3C
12:29:50.338 -> $GNGGA,162950.00,4531.85150,N,07336.81375,W,1,10,3.02,76.2,M,-32.7,M,,*42
12:29:50.405 -> $GNGSA,A,3,17,19,03,22,01,,,,,,,,4.27,3.02,3.03*10
12:29:50.471 -> $GNGSA,A,3,83,82,74,66,67,,,,,,,,4.27,3.02,3.03*1F
12:29:50.505 -> $GPGSV,3,1,11,01,16,053,45,02,10,237,,03,40,073,46,06,50,234,*78
12:29:50.571 -> $GPGSV,3,2,11,11,06,072,,12,06,319,40,17,77,005,55,19,66,310,49*75
12:29:50.671 -> $GPGSV,3,3,11,22,27,053,45,24,18,296,34,28,48,159,21*46
12:29:50.704 -> $GLGSV,3,1,09,66,16,027,40,67,29,081,42,68,12,134,27,73,52,269,20*6F
12:29:50.770 -> $GLGSV,3,2,09,74,29,324,36,80,23,196,16,82,36,054,48,83,65,334,34*6C
12:29:50.870 -> $GLGSV,3,3,09,84,22,268,28*56
12:29:50.903 -> $GNGLL,4531.85150,N,07336.81375,W,162950.00,A,A*6F
12:29:51.236 -> $GNRMC,162951.00,A,4531.85150,N,07336.81376,W,0.252,,220719,,,A*7E
12:29:51.302 -> $GNVTG,,T,,M,0.252,N,0.467,K,A*3D
12:29:51.369 -> $GNGGA,162951.00,4531.85150,N,07336.81376,W,1,10,3.02,76.2,M,-32.7,M,,*40
12:29:51.435 -> $GNGSA,A,3,17,19,03,22,01,,,,,,,,4.28,3.02,3.03*1F
12:29:51.502 -> $GNGSA,A,3,83,82,74,66,67,,,,,,,,4.28,3.02,3.03*10
12:29:51.535 -> $GPGSV,3,1,11,01,16,053,46,02,10,237,,03,40,073,48,06,50,234,*75
12:29:51.601 -> $GPGSV,3,2,11,11,06,072,,12,06,319,40,17,77,005,55,19,66,310,47*7B
12:29:51.701 -> $GPGSV,3,3,11,22,27,053,41,24,18,296,35,28,48,159,18*49
12:29:51.734 -> $GLGSV,3,1,09,66,16,027,42,67,29,081,46,68,12,134,26,73,52,269,20*68
12:29:51.800 -> $GLGSV,3,2,09,74,29,324,34,80,23,196,14,82,36,054,43,83,65,334,36*65
12:29:51.900 -> $GLGSV,3,3,09,84,22,268,26*58
12:29:51.933 -> $GNGLL,4531.85150,N,07336.81376,W,162951.00,A,A*6D
12:29:52.266 -> $GNRMC,162952.00,A,4531.85147,N,07336.81377,W,0.409,,220719,,,A*72
12:29:52.332 -> $GNVTG,,T,,M,0.409,N,0.757,K,A*35
12:29:52.366 -> $GNGGA,162952.00,4531.85147,N,07336.81377,W,1,10,3.02,76.1,M,-32.7,M,,*47
12:29:52.432 -> $GNGSA,A,3,17,19,03,22,01,,,,,,,,4.28,3.02,3.03*1F
12:29:52.499 -> $GNGSA,A,3,83,82,74,66,67,,,,,,,,4.28,3.02,3.03*10
12:29:52.532 -> $GPGSV,3,1,11,01,16,053,46,02,10,237,,03,40,073,45,06,50,234,*78
12:29:52.598 -> $GPGSV,3,2,11,11,06,072,,12,06,319,37,17,77,005,54,19,66,310,48*75
12:29:52.698 -> $GPGSV,3,3,11,22,27,053,46,24,18,296,35,28,48,159,18*4E
12:29:52.731 -> $GLGSV,3,1,09,66,16,027,41,67,29,081,41,68,12,134,28,73,52,269,24*66
12:29:52.798 -> $GLGSV,3,2,09,74,29,324,33,80,23,196,14,82,36,054,48,83,65,334,37*68
12:29:52.897 -> $GLGSV,3,3,09,84,22,268,24*5A
12:29:52.931 -> $GNGLL,4531.85147,N,07336.81377,W,162952.00,A,A*69
12:29:53.263 -> $GNRMC,162953.00,A,4531.85144,N,07336.81380,W,0.081,,220719,,,A*7C
12:29:53.330 -> $GNVTG,,T,,M,0.081,N,0.149,K,A*38
12:29:53.363 -> $GNGGA,162953.00,4531.85144,N,07336.81380,W,1,10,3.02,76.0,M,-32.7,M,,*4C
12:29:53.429 -> $GNGSA,A,3,17,19,03,22,01,,,,,,,,4.28,3.02,3.03*1F
12:29:53.496 -> $GNGSA,A,3,83,82,74,66,67,,,,,,,,4.28,3.02,3.03*10
12:29:53.529 -> $GPGSV,3,1,11,01,16,053,41,02,10,237,,03,40,073,48,06,50,234,*72
12:29:53.595 -> $GPGSV,3,2,11,11,06,072,,12,06,319,39,17,77,005,54,19,66,310,48*7B
12:29:53.695 -> $GPGSV,3,3,11,22,27,053,44,24,18,296,35,28,48,159,17*43
12:29:53.728 -> $GLGSV,3,1,09,66,16,027,41,67,29,081,44,68,12,134,28,73,52,269,26*61
12:29:53.795 -> $GLGSV,3,2,09,74,29,324,38,80,23,196,13,82,36,054,41,83,65,334,32*68
12:29:53.894 -> $GLGSV,3,3,09,84,22,268,24*5A
12:29:53.927 -> $GNGLL,4531.85144,N,07336.81380,W,162953.00,A,A*63
12:29:54.260 -> $GNRMC,162954.00,A,4531.85128,N,07336.81385,W,0.387,,220719,,,A*71
12:29:54.326 -> $GNVTG,,T,,M,0.387,N,0.717,K,A*30
12:29:54.359 -> $GNGGA,162954.00,4531.85128,N,07336.81385,W,1,10,3.02,75.7,M,-32.7,M,,*40
12:29:54.426 -> $GNGSA,A,3,17,19,03,22,01,,,,,,,,4.28,3.02,3.03*1F
12:29:54.492 -> $GNGSA,A,3,83,82,74,66,67,,,,,,,,4.28,3.02,3.03*10
12:29:54.526 -> $GPGSV,3,1,11,01,16,053,44,02,10,237,,03,40,073,42,06,50,234,*7D
12:29:54.592 -> $GPGSV,3,2,11,11,06,072,,12,06,319,41,17,77,005,55,19,66,310,47*7A
12:29:54.692 -> $GPGSV,3,3,11,22,27,053,47,24,18,296,34,28,48,159,19*4F
12:29:54.725 -> $GLGSV,3,1,09,66,16,027,41,67,29,081,40,68,12,134,27,73,52,269,23*6F
12:29:54.791 -> $GLGSV,3,2,09,74,29,324,38,80,23,196,13,82,36,054,48,83,65,334,36*65
12:29:54.891 -> $GLGSV,3,3,09,84,22,268,25*5B
12:29:54.924 -> $GNGLL,4531.85128,N,07336.81385,W,162954.00,A,A*6B
12:29:55.256 -> $GNRMC,162955.00,A,4531.85119,N,07336.81392,W,0.110,,220719,,,A*78
12:29:55.323 -> $GNVTG,,T,,M,0.110,N,0.204,K,A*3B
12:29:55.356 -> $GNGGA,162955.00,4531.85119,N,07336.81392,W,1,10,3.02,75.5,M,-32.7,M,,*47
12:29:55.422 -> $GNGSA,A,3,17,19,03,22,01,,,,,,,,4.28,3.02,3.03*1F
12:29:55.489 -> $GNGSA,A,3,83,82,74,66,67,,,,,,,,4.28,3.02,3.03*10
12:29:55.522 -> $GPGSV,3,1,11,01,16,053,41,02,10,237,,03,40,073,49,06,50,234,*73
12:29:55.588 -> $GPGSV,3,2,11,11,06,072,,12,06,319,40,17,77,005,54,19,66,310,47*7A
12:29:55.688 -> $GPGSV,3,3,11,22,27,053,44,24,18,296,35,28,48,159,20*47
12:29:55.721 -> $GLGSV,3,1,09,66,16,027,41,67,29,081,46,68,12,134,28,73,52,269,23*66
12:29:55.788 -> $GLGSV,3,2,09,74,29,324,37,80,23,196,11,82,36,054,39,83,65,334,36*6E
12:29:55.887 -> $GLGSV,3,3,09,84,22,268,24*5A
12:29:55.921 -> $GNGLL,4531.85119,N,07336.81392,W,162955.00,A,A*6E
12:29:56.254 -> $GNRMC,162956.00,A,4531.85109,N,07336.81397,W,0.112,,220719,,,A*7D
12:29:56.321 -> $GNVTG,,T,,M,0.112,N,0.208,K,A*35
12:29:56.354 -> $GNGGA,162956.00,4531.85109,N,07336.81397,W,1,10,3.03,75.3,M,-32.7,M,,*47
12:29:56.420 -> $GNGSA,A,3,17,19,03,22,01,,,,,,,,4.28,3.03,3.03*1E
12:29:56.487 -> $GNGSA,A,3,83,82,74,66,67,,,,,,,,4.28,3.03,3.03*11
12:29:56.520 -> $GPGSV,3,1,11,01,16,053,39,02,10,237,,03,40,073,45,06,50,234,*70
12:29:56.587 -> $GPGSV,3,2,11,11,06,072,,12,06,319,39,17,77,005,54,19,66,310,48*7B
12:29:56.686 -> $GPGSV,3,3,11,22,27,053,46,24,18,296,35,28,48,159,22*47
12:29:56.720 -> $GLGSV,3,1,09,66,16,027,41,67,29,081,44,68,12,134,28,73,52,269,25*62
12:29:56.786 -> $GLGSV,3,2,09,74,29,324,37,80,23,196,,82,36,054,46,83,65,334,37*67
12:29:56.886 -> $GLGSV,3,3,09,84,22,268,23*5D
12:29:56.919 -> $GNGLL,4531.85109,N,07336.81397,W,162956.00,A,A*69
12:29:57.252 -> $GNRMC,162957.00,A,4531.85111,N,07336.81391,W,0.117,,220719,,,A*76
12:29:57.318 -> $GNVTG,,T,,M,0.117,N,0.217,K,A*3E
12:29:57.351 -> $GNGGA,162957.00,4531.85111,N,07336.81391,W,1,10,3.03,75.6,M,-32.7,M,,*4C
12:29:57.418 -> $GNGSA,A,3,17,19,03,22,01,,,,,,,,4.28,3.03,3.03*1E
12:29:57.484 -> $GNGSA,A,3,83,82,74,66,67,,,,,,,,4.28,3.03,3.03*11
12:29:57.517 -> $GPGSV,3,1,11,01,16,053,45,02,10,237,,03,40,073,47,06,50,234,*79
12:29:57.585 -> $GPGSV,3,2,11,11,06,072,,12,06,319,34,17,77,005,53,19,66,310,49*70
12:29:57.685 -> $GPGSV,3,3,11,22,27,053,47,24,18,296,35,28,48,159,21*45
12:29:57.718 -> $GLGSV,3,1,09,66,16,027,42,67,29,081,49,68,12,134,28,73,52,269,32*6A
12:29:57.785 -> $GLGSV,3,2,09,74,29,324,44,80,22,196,,82,36,054,52,83,65,334,38*68
12:29:57.884 -> $GLGSV,3,3,09,84,22,268,21*5F
12:29:57.918 -> $GNGLL,4531.85111,N,07336.81391,W,162957.00,A,A*67
12:29:58.250 -> $GNRMC,162958.00,A,4531.85115,N,07336.81389,W,0.143,,220719,,,A*75
12:29:58.316 -> $GNVTG,,T,,M,0.143,N,0.264,K,A*3B
12:29:58.350 -> $GNGGA,162958.00,4531.85115,N,07336.81389,W,1,10,3.03,75.8,M,-32.7,M,,*40
12:29:58.416 -> $GNGSA,A,3,17,19,03,22,01,,,,,,,,4.28,3.03,3.03*1E
12:29:58.483 -> $GNGSA,A,3,83,82,74,66,67,,,,,,,,4.28,3.03,3.03*11
12:29:58.516 -> $GPGSV,3,1,11,01,16,053,43,02,10,237,,03,40,073,45,06,50,234,*7D
12:29:58.582 -> $GPGSV,3,2,11,11,06,072,26,12,06,319,34,17,77,005,53,19,66,310,49*74
12:29:58.682 -> $GPGSV,3,3,11,22,27,053,46,24,18,296,31,28,48,159,19*4B
12:29:58.715 -> $GLGSV,3,1,09,66,16,027,35,67,29,081,49,68,12,134,27,73,52,269,36*61
12:29:58.815 -> $GLGSV,3,2,09,74,29,324,40,80,22,196,,82,36,054,51,83,65,334,41*61
12:29:58.881 -> $GLGSV,3,3,09,84,22,268,24*5A
12:29:58.914 -> $GNGLL,4531.85115,N,07336.81389,W,162958.00,A,A*65
12:29:59.247 -> $GNRMC,162959.00,A,4531.85112,N,07336.81389,W,0.303,,220719,,,A*75
12:29:59.313 -> $GNVTG,,T,,M,0.303,N,0.561,K,A*3F
12:29:59.346 -> $GNGGA,162959.00,4531.85112,N,07336.81389,W,1,10,3.03,75.7,M,-32.7,M,,*49
12:29:59.413 -> $GNGSA,A,3,17,19,03,22,01,,,,,,,,4.29,3.03,3.03*1F
12:29:59.479 -> $GNGSA,A,3,83,82,74,66,67,,,,,,,,4.29,3.03,3.03*10
12:29:59.513 -> $GPGSV,3,1,11,01,16,053,41,02,10,237,,03,40,073,42,06,50,234,*78
12:29:59.579 -> $GPGSV,3,2,11,11,06,072,26,12,06,319,34,17,77,005,53,19,66,310,49*74
12:29:59.679 -> $GPGSV,3,3,11,22,27,053,47,24,18,296,31,28,48,159,21*41
12:29:59.712 -> $GLGSV,3,1,09,66,16,027,38,67,29,081,48,68,12,134,28,73,52,269,35*61
12:29:59.812 -> $GLGSV,3,2,09,74,29,324,44,80,22,196,,82,36,054,51,83,65,334,41*65
12:29:59.878 -> $GLGSV,3,3,09,84,22,268,27*59
12:29:59.911 -> $GNGLL,4531.85112,N,07336.81389,W,162959.00,A,A*63
12:30:00.244 -> $GNRMC,163000.00,A,4531.85110,N,07336.81390,W,0.198,,220719,,,A*7B
12:30:00.310 -> $GNVTG,,T,,M,0.198,N,0.367,K,A*3F
12:30:00.343 -> $GNGGA,163000.00,4531.85110,N,07336.81390,W,1,10,3.03,75.5,M,-32.7,M,,*45
12:30:00.410 -> $GNGSA,A,3,17,19,03,22,01,,,,,,,,4.29,3.03,3.03*1F
12:30:00.476 -> $GNGSA,A,3,83,82,74,66,67,,,,,,,,4.29,3.03,3.03*10
12:30:00.510 -> $GPGSV,3,1,11,01,16,053,39,02,10,237,,03,40,073,46,06,50,234,*73
12:30:00.576 -> $GPGSV,3,2,11,11,06,072,26,12,06,319,35,17,77,005,52,19,66,310,49*74
12:30:00.676 -> $GPGSV,3,3,11,22,27,053,44,24,18,296,31,28,48,159,21*42
12:30:00.709 -> $GLGSV,3,1,09,66,16,027,39,67,29,081,46,68,12,134,29,73,52,269,35*6F
12:30:00.809 -> $GLGSV,3,2,09,74,29,324,43,80,22,196,,82,36,054,49,83,65,335,42*69
12:30:00.875 -> $GLGSV,3,3,09,84,22,268,27*59
12:30:00.908 -> $GNGLL,4531.85110,N,07336.81390,W,163000.00,A,A*6D
12:30:01.274 -> $GNRMC,163001.00,A,4531.85109,N,07336.81390,W,0.139,,220719,,,A*79
12:30:01.340 -> $GNVTG,,T,,M,0.139,N,0.258,K,A*39
12:30:01.374 -> $GNGGA,163001.00,4531.85109,N,07336.81390,W,1,11,1.94,75.4,M,-32.7,M,,*40
12:30:01.440 -> $GNGSA,A,3,17,19,03,24,22,01,,,,,,,2.52,1.94,1.62*1A
12:30:01.507 -> $GNGSA,A,3,83,82,74,66,67,,,,,,,,2.52,1.94,1.62*13
12:30:01.540 -> $GPGSV,3,1,11,01,16,053,38,02,10,237,,03,40,073,43,06,50,234,*77
12:30:01.606 -> $GPGSV,3,2,11,11,06,072,26,12,06,319,41,17,77,005,53,19,66,310,49*76
12:30:01.706 -> $GPGSV,3,3,11,22,27,053,47,24,17,296,31,28,48,159,22*4D
12:30:01.739 -> $GLGSV,3,1,09,66,16,027,40,67,29,081,49,68,12,134,28,73,52,269,35*6F
12:30:01.839 -> $GLGSV,3,2,09,74,29,324,45,80,22,196,22,82,36,054,49,83,65,335,42*6F
12:30:01.905 -> $GLGSV,3,3,09,84,22,269,28*57
12:30:01.939 -> $GNGLL,4531.85109,N,07336.81390,W,163001.00,A,A*64
12:30:02.271 -> $GNRMC,163002.00,A,4531.85106,N,07336.81387,W,0.078,,220719,,,A*77
12:30:02.337 -> $GNVTG,,T,,M,0.078,N,0.144,K,A*33
12:30:02.370 -> $GNGGA,163002.00,4531.85106,N,07336.81387,W,1,11,1.94,75.2,M,-32.7,M,,*4C
12:30:02.437 -> $GNGSA,A,3,17,19,03,24,22,01,,,,,,,2.52,1.94,1.62*1A
12:30:02.503 -> $GNGSA,A,3,83,82,74,66,67,,,,,,,,2.52,1.94,1.62*13
12:30:02.536 -> $GPGSV,3,1,11,01,16,053,39,02,10,237,,03,40,073,41,06,50,234,*74
12:30:02.603 -> $GPGSV,3,2,11,11,06,072,26,12,06,319,40,17,77,005,53,19,66,310,49*77
12:30:02.703 -> $GPGSV,3,3,11,22,27,053,47,24,17,296,35,28,48,159,25*4E
12:30:02.736 -> $GLGSV,3,1,09,66,16,027,39,67,29,081,48,68,12,134,29,73,52,269,36*62
12:30:02.836 -> $GLGSV,3,2,09,74,29,324,41,80,22,196,22,82,36,054,50,83,65,335,40*61
12:30:02.902 -> $GLGSV,3,3,09,84,22,269,29*56
12:30:02.935 -> $GNGLL,4531.85106,N,07336.81387,W,163002.00,A,A*6E
12:30:03.268 -> $GNRMC,163003.00,A,4531.85104,N,07336.81385,W,0.207,,220719,,,A*7C
12:30:03.334 -> $GNVTG,,T,,M,0.207,N,0.384,K,A*37
12:30:03.367 -> $GNGGA,163003.00,4531.85104,N,07336.81385,W,1,11,1.94,75.1,M,-32.7,M,,*4E
12:30:03.434 -> $GNGSA,A,3,17,19,03,24,22,01,,,,,,,2.52,1.94,1.62*1A
12:30:03.500 -> $GNGSA,A,3,83,82,74,66,67,,,,,,,,2.52,1.94,1.62*13
12:30:03.534 -> $GPGSV,3,1,11,01,16,053,40,02,10,237,,03,40,073,42,06,50,234,*79
12:30:03.600 -> $GPGSV,3,2,11,11,06,072,26,12,06,319,41,17,77,005,53,19,66,310,49*76
12:30:03.700 -> $GPGSV,3,3,11,22,27,053,46,24,17,296,34,28,48,159,24*4F
12:30:03.733 -> $GLGSV,3,1,09,66,16,027,39,67,29,081,49,68,12,134,28,73,52,269,36*62
12:30:03.833 -> $GLGSV,3,2,09,74,29,324,44,80,22,196,21,82,36,054,49,83,65,335,41*6E
12:30:03.899 -> $GLGSV,3,3,09,84,22,269,29*56
12:30:03.933 -> $GNGLL,4531.85104,N,07336.81385,W,163003.00,A,A*6F
12:30:04.265 -> $GNRMC,163004.00,A,4531.85102,N,07336.81383,W,0.283,324.48,220719,,,A*60
12:30:04.331 -> $GNVTG,324.48,T,,M,0.283,N,0.524,K,A*20
12:30:04.365 -> $GNGGA,163004.00,4531.85102,N,07336.81383,W,1,11,1.94,75.0,M,-32.7,M,,*48
12:30:04.431 -> $GNGSA,A,3,17,19,03,24,22,01,,,,,,,2.52,1.94,1.62*1A
12:30:04.498 -> $GNGSA,A,3,83,82,74,66,67,,,,,,,,2.52,1.94,1.62*13
12:30:04.564 -> $GPGSV,3,1,11,01,16,053,42,02,10,237,,03,40,073,46,06,50,234,*7F
12:30:04.630 -> $GPGSV,3,2,11,11,06,072,27,12,06,319,39,17,77,005,54,19,66,310,50*77
12:30:04.696 -> $GPGSV,3,3,11,22,27,053,47,24,17,296,34,28,48,159,23*49
12:30:04.762 -> $GLGSV,3,1,09,66,16,027,39,67,29,081,48,68,12,134,28,73,52,269,36*63
12:30:04.829 -> $GLGSV,3,2,09,74,29,324,40,80,22,196,21,82,36,054,49,83,65,335,41*6A
12:30:04.895 -> $GLGSV,3,3,09,84,22,269,30*5E
12:30:04.928 -> $GNGLL,4531.85102,N,07336.81383,W,163004.00,A,A*68
12:30:05.261 -> $GNRMC,163005.00,A,4531.85108,N,07336.81396,W,0.544,322.20,220719,,,A*6B
12:30:05.327 -> $GNVTG,322.20,T,,M,0.544,N,1.008,K,A*2E
12:30:05.360 -> $GNGGA,163005.00,4531.85108,N,07336.81396,W,1,11,1.94,74.9,M,-32.7,M,,*4F
12:30:05.427 -> $GNGSA,A,3,17,19,03,24,22,01,,,,,,,2.52,1.94,1.62*1A
12:30:05.493 -> $GNGSA,A,3,83,82,74,66,67,,,,,,,,2.52,1.94,1.62*13
12:30:05.560 -> $GPGSV,3,1,11,01,16,053,45,02,10,237,,03,40,073,49,06,50,234,*77
12:30:05.626 -> $GPGSV,3,2,11,11,06,072,,12,06,319,38,17,77,005,54,19,66,310,49*7B
12:30:05.693 -> $GPGSV,3,3,11,22,27,053,49,24,17,296,30,28,48,159,24*44
12:30:05.759 -> $GLGSV,3,1,09,66,16,027,34,67,29,081,50,68,12,134,19,73,52,269,32*61
12:30:05.826 -> $GLGSV,3,2,09,74,29,324,43,80,22,196,20,82,36,054,49,83,65,335,40*69
12:30:05.892 -> $GLGSV,3,3,09,84,22,269,24*5B
12:30:05.925 -> $GNGLL,4531.85108,N,07336.81396,W,163005.00,A,A*67
12:30:06.257 -> $GNRMC,163006.00,A,4531.85125,N,07336.81429,W,1.103,307.54,220719,,,A*66
12:30:06.324 -> $GNVTG,307.54,T,,M,1.103,N,2.044,K,A*27
12:30:06.357 -> $GNGGA,163006.00,4531.85125,N,07336.81429,W,1,10,3.04,74.7,M,-32.7,M,,*44
12:30:06.424 -> $GNGSA,A,3,17,19,03,22,01,,,,,,,,4.29,3.04,3.04*1F
12:30:06.490 -> $GNGSA,A,3,83,82,74,66,67,,,,,,,,4.29,3.04,3.04*10
12:30:06.557 -> $GPGSV,3,1,11,01,16,053,39,02,10,237,,03,40,073,48,06,50,234,*7D
12:30:06.623 -> $GPGSV,3,2,11,11,06,072,,12,06,319,38,17,77,005,55,19,66,310,50*72
12:30:06.690 -> $GPGSV,3,3,11,22,27,053,39,24,17,296,,28,48,159,25*41
12:30:06.756 -> $GLGSV,3,1,09,66,16,027,43,67,29,081,45,68,12,134,29,73,52,269,36*62
12:30:06.823 -> $GLGSV,3,2,09,74,29,324,42,80,22,196,18,82,36,054,49,83,65,335,31*65
12:30:06.889 -> $GLGSV,3,3,09,84,22,269,24*5B
12:30:06.922 -> $GNGLL,4531.85125,N,07336.81429,W,163006.00,A,A*68
12:30:07.255 -> $GNRMC,163007.00,A,4531.85147,N,07336.81478,W,1.589,303.04,220719,,,A*60
12:30:07.321 -> $GNVTG,303.04,T,,M,1.589,N,2.943,K,A*2E
12:30:07.354 -> $GNGGA,163007.00,4531.85147,N,07336.81478,W,1,11,1.94,74.7,M,-32.7,M,,*4F
12:30:07.421 -> $GNGSA,A,3,17,19,03,24,22,01,,,,,,,2.53,1.94,1.62*1B
12:30:07.487 -> $GNGSA,A,3,83,82,74,66,67,,,,,,,,2.53,1.94,1.62*12
12:30:07.554 -> $GPGSV,3,1,11,01,16,053,42,02,10,237,,03,40,073,49,06,50,234,*70
12:30:07.620 -> $GPGSV,3,2,11,11,06,072,,12,06,319,29,17,77,005,54,19,66,310,49*7B
12:30:07.687 -> $GPGSV,3,3,11,22,27,053,40,24,17,296,31,28,48,159,25*4D
12:30:07.753 -> $GLGSV,3,1,09,66,16,027,38,67,29,081,50,68,12,134,28,73,52,269,31*6C
12:30:07.820 -> $GLGSV,3,2,09,74,29,324,49,80,22,196,17,82,36,054,44,83,65,335,39*64
12:30:07.886 -> $GLGSV,3,3,09,84,22,269,23*5C
12:30:07.919 -> $GNGLL,4531.85147,N,07336.81478,W,163007.00,A,A*69
12:30:08.252 -> $GNRMC,163008.00,A,4531.85169,N,07336.81545,W,1.985,309.71,220719,,,A*64
12:30:08.318 -> $GNVTG,309.71,T,,M,1.985,N,3.677,K,A*2F
12:30:08.351 -> $GNGGA,163008.00,4531.85169,N,07336.81545,W,1,11,1.94,74.4,M,-32.7,M,,*40
12:30:08.418 -> $GNGSA,A,3,17,19,03,24,22,01,,,,,,,2.53,1.94,1.62*1B
12:30:08.484 -> $GNGSA,A,3,83,82,74,66,67,,,,,,,,2.53,1.94,1.62*12
12:30:08.551 -> $GPGSV,3,1,11,01,16,053,38,02,10,237,,03,40,073,43,06,50,234,*77
12:30:08.617 -> $GPGSV,3,2,11,11,06,072,,12,06,319,42,17,77,005,54,19,66,310,49*76
12:30:08.684 -> $GPGSV,3,3,11,22,27,053,48,24,17,296,37,28,48,159,25*43
12:30:08.750 -> $GLGSV,3,1,09,66,16,027,40,67,29,081,49,68,12,134,27,73,52,269,27*63
12:30:08.817 -> $GLGSV,3,2,09,74,29,324,52,80,22,196,17,82,36,054,52,83,65,335,39*69
12:30:08.883 -> $GLGSV,3,3,09,84,22,269,29*56
12:30:08.917 -> $GNGLL,4531.85169,N,07336.81545,W,163008.00,A,A*65
12:30:09.249 -> $GNRMC,163009.00,A,4531.85216,N,07336.81604,W,2.146,312.33,220719,,,A*60
12:30:09.315 -> $GNVTG,312.33,T,,M,2.146,N,3.975,K,A*2A
12:30:09.349 -> $GNGGA,163009.00,4531.85216,N,07336.81604,W,1,11,1.94,74.6,M,-32.7,M,,*4E
12:30:09.415 -> $GNGSA,A,3,17,19,03,24,22,01,,,,,,,2.53,1.94,1.62*1B
12:30:09.482 -> $GNGSA,A,3,83,82,74,66,67,,,,,,,,2.53,1.94,1.62*12
12:30:09.548 -> $GPGSV,3,1,11,01,16,053,33,02,10,237,,03,40,073,48,06,50,234,*77
12:30:09.615 -> $GPGSV,3,2,11,11,06,072,,12,06,319,43,17,77,005,52,19,66,310,48*70
12:30:09.681 -> $GPGSV,3,3,11,22,27,053,46,24,17,296,30,28,48,159,25*4A
12:30:09.747 -> $GLGSV,3,1,09,66,16,027,39,67,29,080,47,68,12,134,27,73,52,269,31*65
12:30:09.814 -> $GLGSV,3,2,09,74,29,324,48,80,22,196,17,82,36,054,50,83,65,335,41*6F
12:30:09.880 -> $GLGSV,3,3,09,84,22,269,28*57
12:30:09.913 -> $GNGLL,4531.85216,N,07336.81604,W,163009.00,A,A*69
12:30:10.246 -> $GNRMC,163010.00,A,4531.85261,N,07336.81666,W,2.160,309.80,220719,,,A*6A
12:30:10.312 -> $GNVTG,309.80,T,,M,2.160,N,4.000,K,A*20
12:30:10.346 -> $GNGGA,163010.00,4531.85261,N,07336.81666,W,1,10,3.05,74.7,M,-32.7,M,,*48
12:30:10.412 -> $GNGSA,A,3,17,19,03,22,01,,,,,,,,4.38,3.05,3.14*1F
12:30:10.478 -> $GNGSA,A,3,83,82,74,66,67,,,,,,,,4.38,3.05,3.14*10
12:30:10.544 -> $GPGSV,3,1,11,01,16,053,39,02,10,237,,03,40,073,48,06,50,234,*7D
12:30:10.644 -> $GPGSV,3,2,11,11,06,072,,12,06,319,39,17,77,005,51,19,66,310,48*7E
12:30:10.678 -> $GPGSV,3,3,11,22,27,053,45,24,17,296,34,28,48,159,31*48
12:30:10.744 -> $GLGSV,3,1,09,66,16,027,41,67,29,080,44,68,12,134,25,73,52,269,30*6A
12:30:10.844 -> $GLGSV,3,2,09,74,29,324,42,80,22,196,17,82,36,054,48,83,65,335,39*63
12:30:10.877 -> $GLGSV,3,3,09,84,22,269,27*58
12:30:10.943 -> $GNGLL,4531.85261,N,07336.81666,W,163010.00,A,A*65
12:30:11.242 -> $GNRMC,163011.00,A,4531.85289,N,07336.81737,W,2.315,308.40,220719,,,A*65
12:30:11.309 -> $GNVTG,308.40,T,,M,2.315,N,4.287,K,A*20
12:30:11.342 -> $GNGGA,163011.00,4531.85289,N,07336.81737,W,1,10,3.04,74.6,M,-32.7,M,,*4A
12:30:11.409 -> $GNGSA,A,3,17,19,03,22,01,,,,,,,,4.30,3.04,3.04*17
12:30:11.475 -> $GNGSA,A,3,83,82,74,66,67,,,,,,,,4.30,3.04,3.04*18
12:30:11.542 -> $GPGSV,3,1,11,01,16,053,45,02,10,237,,03,40,073,49,06,50,234,*77
12:30:11.608 -> $GPGSV,3,2,11,11,06,072,,12,06,319,34,17,77,005,48,19,66,310,47*74
12:30:11.675 -> $GPGSV,3,3,11,22,27,053,45,24,17,296,,28,48,159,26*49
12:30:11.741 -> $GLGSV,3,1,09,66,16,027,43,67,29,080,51,68,12,134,26,73,52,269,33*6C
12:30:11.808 -> $GLGSV,3,2,09,74,29,324,41,80,22,196,16,82,36,054,52,83,65,335,41*65
12:30:11.874 -> $GLGSV,3,3,09,84,22,269,27*58
12:30:11.907 -> $GNGLL,4531.85289,N,07336.81737,W,163011.00,A,A*67
12:30:12.240 -> $GNRMC,163012.00,A,4531.85327,N,07336.81812,W,2.290,307.20,220719,,,A*6E
12:30:12.306 -> $GNVTG,307.20,T,,M,2.290,N,4.242,K,A*2C
12:30:12.339 -> $GNGGA,163012.00,4531.85327,N,07336.81812,W,1,11,1.94,74.5,M,-32.7,M,,*4D
12:30:12.406 -> $GNGSA,A,3,17,19,03,24,22,01,,,,,,,2.53,1.94,1.61*18
12:30:12.472 -> $GNGSA,A,3,83,82,74,66,67,,,,,,,,2.53,1.94,1.61*11
12:30:12.539 -> $GPGSV,3,1,11,01,16,053,26,02,10,237,,03,40,073,50,06,50,234,*7A
12:30:12.605 -> $GPGSV,3,2,11,11,06,072,,12,06,319,31,17,77,005,49,19,66,310,46*71
12:30:12.672 -> $GPGSV,3,3,11,22,27,053,42,24,17,296,31,28,48,159,32*49
12:30:12.738 -> $GLGSV,3,1,09,66,16,027,30,67,29,080,48,68,12,134,27,73,52,269,28*6B
12:30:12.805 -> $GLGSV,3,2,09,74,29,324,30,80,22,196,14,82,36,054,51,83,65,335,43*60
12:30:12.871 -> $GLGSV,3,3,09,84,22,269,26*59
12:30:12.904 -> $GNGLL,4531.85327,N,07336.81812,W,163012.00,A,A*69
12:30:13.237 -> $GNRMC,163013.00,A,4531.85358,N,07336.81892,W,2.329,303.28,220719,,,A*60
12:30:13.303 -> $GNVTG,303.28,T,,M,2.329,N,4.313,K,A*26
12:30:13.336 -> $GNGGA,163013.00,4531.85358,N,07336.81892,W,1,11,1.95,74.4,M,-32.7,M,,*4C
12:30:13.403 -> $GNGSA,A,3,17,19,03,24,22,01,,,,,,,2.56,1.95,1.66*1B
12:30:13.469 -> $GNGSA,A,3,83,82,74,66,67,,,,,,,,2.56,1.95,1.66*12
12:30:13.569 -> $GPGSV,3,1,11,01,16,053,43,02,10,237,26,03,40,073,45,06,50,234,*79
12:30:13.602 -> $GPGSV,3,2,11,11,06,072,,12,06,319,40,17,77,005,50,19,66,310,47*7E
12:30:13.702 -> $GPGSV,3,3,11,22,27,053,47,24,17,296,34,28,48,159,27*4D
12:30:13.768 -> $GLGSV,3,1,09,66,16,027,37,67,29,080,46,68,12,134,26,73,52,269,28*63
12:30:13.835 -> $GLGSV,3,2,09,74,29,324,45,80,22,196,15,82,36,054,47,83,65,335,42*65
12:30:13.902 -> $GLGSV,3,3,09,84,22,269,25*5A
12:30:13.935 -> $GNGLL,4531.85358,N,07336.81892,W,163013.00,A,A*68
12:30:14.267 -> $GNRMC,163014.00,A,4531.85405,N,07336.81955,W,2.457,310.95,220719,,,A*68
12:30:14.334 -> $GNVTG,310.95,T,,M,2.457,N,4.551,K,A*2C
12:30:14.367 -> $GNGGA,163014.00,4531.85405,N,07336.81955,W,1,11,1.95,74.7,M,-32.7,M,,*4D
12:30:14.433 -> $GNGSA,A,3,17,19,03,24,22,01,,,,,,,2.56,1.95,1.66*1B
12:30:14.500 -> $GNGSA,A,3,83,82,74,66,67,,,,,,,,2.56,1.95,1.66*12
12:30:14.566 -> $GPGSV,3,1,11,01,16,053,39,02,10,237,,03,40,073,44,06,50,234,*71
12:30:14.633 -> $GPGSV,3,2,11,11,06,072,,12,06,319,40,17,77,005,52,19,66,310,43*78
12:30:14.699 -> $GPGSV,3,3,11,22,27,053,43,24,17,296,33,28,48,159,28*41
12:30:14.766 -> $GLGSV,3,1,09,66,16,027,42,67,29,080,43,68,12,134,26,73,52,269,33*6E
12:30:14.832 -> $GLGSV,3,2,09,74,29,324,51,80,22,196,14,82,36,054,49,83,65,335,40*6D
12:30:14.899 -> $GLGSV,3,3,09,84,22,269,24*5B
12:30:14.932 -> $GNGLL,4531.85405,N,07336.81955,W,163014.00,A,A*6A
12:30:15.264 -> $GNRMC,163015.00,A,4531.85440,N,07336.82028,W,2.268,308.13,220719,,,A*65
12:30:15.331 -> $GNVTG,308.13,T,,M,2.268,N,4.200,K,A*22
12:30:15.364 -> $GNGGA,163015.00,4531.85440,N,07336.82028,W,1,11,2.34,74.6,M,-32.7,M,,*44
12:30:15.430 -> $GNGSA,A,3,17,19,03,24,22,01,,,,,,,2.85,2.34,1.62*19
12:30:15.496 -> $GNGSA,A,3,83,82,74,66,67,,,,,,,,2.85,2.34,1.62*10
12:30:15.563 -> $GPGSV,3,1,11,01,16,053,32,02,10,237,,03,40,073,45,06,50,234,*7B
12:30:15.629 -> $GPGSV,3,2,11,11,06,072,29,12,06,319,35,17,77,005,55,19,66,310,42*77
12:30:15.695 -> $GPGSV,3,3,11,22,27,053,47,24,17,296,33,28,48,159,28*45
12:30:15.761 -> $GLGSV,3,1,09,66,16,027,44,67,29,080,52,68,12,134,26,73,52,269,34*6F
12:30:15.828 -> $GLGSV,3,2,09,74,29,324,47,80,22,196,13,82,36,054,50,83,65,335,30*62
12:30:15.894 -> $GLGSV,3,3,09,84,22,269,23*5C
12:30:15.927 -> $GNGLL,4531.85440,N,07336.82028,W,163015.00,A,A*6A
12:30:16.258 -> $GNRMC,163016.00,A,4531.85474,N,07336.82100,W,2.250,306.96,220719,,,A*62
12:30:16.325 -> $GNVTG,306.96,T,,M,2.250,N,4.167,K,A*28
12:30:16.358 -> $GNGGA,163016.00,4531.85474,N,07336.82100,W,1,10,3.05,74.6,M,-32.7,M,,*49
12:30:16.424 -> $GNGSA,A,3,17,19,03,22,01,,,,,,,,4.31,3.05,3.04*17
12:30:16.491 -> $GNGSA,A,3,83,82,74,66,67,,,,,,,,4.31,3.05,3.04*18
12:30:16.558 -> $GPGSV,3,1,11,01,16,053,35,02,10,237,,03,40,073,49,06,50,234,*70
12:30:16.624 -> $GPGSV,3,2,11,11,06,072,31,12,06,319,38,17,77,005,55,19,66,310,44*75
12:30:16.690 -> $GPGSV,3,3,11,22,27,053,44,24,17,296,31,28,48,159,28*44
12:30:16.757 -> $GLGSV,3,1,09,66,16,027,42,67,29,080,46,68,12,134,24,73,52,269,33*69
12:30:16.823 -> $GLGSV,3,2,09,74,29,324,43,80,22,196,16,82,36,054,40,83,65,335,39*6B
12:30:16.890 -> $GLGSV,3,3,09,84,22,269,24*5B
12:30:16.923 -> $GNGLL,4531.85474,N,07336.82100,W,163016.00,A,A*65
12:30:17.255 -> $GNRMC,163017.00,A,4531.85508,N,07336.82170,W,2.074,299.60,220719,,,A*64
12:30:17.322 -> $GNVTG,299.60,T,,M,2.074,N,3.841,K,A*28
12:30:17.355 -> $GNGGA,163017.00,4531.85508,N,07336.82170,W,1,11,1.94,74.7,M,-32.7,M,,*4F
12:30:17.422 -> $GNGSA,A,3,17,19,03,24,22,01,,,,,,,2.53,1.94,1.61*18
12:30:17.488 -> $GNGSA,A,3,83,82,74,66,67,,,,,,,,2.53,1.94,1.61*11
12:30:17.555 -> $GPGSV,3,1,11,01,16,053,34,02,10,237,,03,40,073,48,06,50,234,*70
12:30:17.621 -> $GPGSV,3,2,11,11,06,072,,12,06,319,38,17,77,005,55,19,66,310,44*77
12:30:17.687 -> $GPGSV,3,3,11,22,27,053,46,24,17,296,31,28,48,159,27*49
12:30:17.754 -> $GLGSV,3,1,09,66,16,027,28,67,29,080,49,68,12,134,24,73,52,269,33*6A
12:30:17.820 -> $GLGSV,3,2,09,74,29,324,35,80,22,196,16,82,36,054,46,83,65,335,40*62
12:30:17.887 -> $GLGSV,3,3,09,84,22,269,25*5A
12:30:17.920 -> $GNGLL,4531.85508,N,07336.82170,W,163017.00,A,A*69
12:30:18.252 -> $GNRMC,163018.00,A,4531.85546,N,07336.82238,W,2.169,300.96,220719,,,A*6B
12:30:18.319 -> $GNVTG,300.96,T,,M,2.169,N,4.018,K,A*2E
12:30:18.352 -> $GNGGA,163018.00,4531.85546,N,07336.82238,W,1,11,1.94,74.9,M,-32.7,M,,*4B
12:30:18.418 -> $GNGSA,A,3,17,19,03,24,22,01,,,,,,,2.53,1.94,1.61*18
12:30:18.485 -> $GNGSA,A,3,83,82,74,66,67,,,,,,,,2.53,1.94,1.61*11
12:30:18.551 -> $GPGSV,3,1,11,01,16,053,39,02,10,237,,03,40,073,47,06,50,234,*72
12:30:18.618 -> $GPGSV,3,2,11,11,06,072,,12,06,319,40,17,77,005,53,19,66,310,44*7E
12:30:18.684 -> $GPGSV,3,3,11,22,27,053,46,24,17,296,31,28,48,159,28*46
12:30:18.750 -> $GLGSV,3,1,09,66,16,027,38,67,29,080,49,68,12,134,23,73,52,269,28*66
12:30:18.817 -> $GLGSV,3,2,09,74,29,324,39,80,22,196,17,82,36,054,52,83,65,335,43*69
12:30:18.883 -> $GLGSV,3,3,09,84,22,269,29*56
12:30:18.917 -> $GNGLL,4531.85546,N,07336.82238,W,163018.00,A,A*63
12:30:19.249 -> $GNRMC,163019.00,A,4531.85577,N,07336.82305,W,1.939,299.29,220719,,,A*6C
12:30:19.315 -> $GNVTG,299.29,T,,M,1.939,N,3.591,K,A*26
12:30:19.349 -> $GNGGA,163019.00,4531.85577,N,07336.82305,W,1,11,1.95,75.1,M,-32.7,M,,*4F
12:30:19.415 -> $GNGSA,A,3,17,19,03,24,22,01,,,,,,,2.56,1.95,1.66*1B
12:30:19.482 -> $GNGSA,A,3,83,82,74,66,67,,,,,,,,2.56,1.95,1.66*12
12:30:19.548 -> $GPGSV,3,1,11,01,16,053,29,02,10,237,,03,40,073,47,06,50,234,*73
12:30:19.615 -> $GPGSV,3,2,11,11,06,072,,12,06,319,35,17,77,005,55,19,66,310,44*7A
12:30:19.681 -> $GPGSV,3,3,11,22,27,053,43,24,17,296,31,28,48,159,29*42
12:30:19.747 -> $GLGSV,3,1,09,66,16,027,36,67,29,080,47,68,12,134,25,73,52,269,28*60
12:30:19.814 -> $GLGSV,3,2,09,74,29,324,43,80,22,196,17,82,36,054,49,83,65,335,41*6C
12:30:19.880 -> $GLGSV,3,3,09,84,22,269,29*56
12:30:19.914 -> $GNGLL,4531.85577,N,07336.82305,W,163019.00,A,A*6F
12:30:20.246 -> $GNRMC,163020.00,A,4531.85598,N,07336.82376,W,2.009,298.87,220719,,,A*6F
12:30:20.313 -> $GNVTG,298.87,T,,M,2.009,N,3.721,K,A*23
12:30:20.346 -> $GNGGA,163020.00,4531.85598,N,07336.82376,W,1,11,1.94,75.1,M,-32.7,M,,*41
12:30:20.412 -> $GNGSA,A,3,17,19,03,24,22,01,,,,,,,2.53,1.94,1.61*18
12:30:20.479 -> $GNGSA,A,3,83,82,74,66,67,,,,,,,,2.53,1.94,1.61*11
12:30:20.545 -> $GPGSV,3,1,11,01,16,053,34,02,10,237,,03,40,073,47,06,50,234,*7F
12:30:20.612 -> $GPGSV,3,2,11,11,06,072,28,12,06,319,35,17,77,005,53,19,66,310,44*76
12:30:20.678 -> $GPGSV,3,3,11,22,27,053,45,24,17,296,31,28,48,159,19*47
12:30:20.745 -> $GLGSV,3,1,09,66,16,027,38,67,29,080,44,68,12,134,25,73,52,269,28*6D
12:30:20.811 -> $GLGSV,3,2,09,74,29,324,38,80,22,196,16,82,36,054,49,83,65,335,40*60
12:30:20.877 -> $GLGSV,3,3,09,84,22,269,29*56
12:30:20.911 -> $GNGLL,4531.85598,N,07336.82376,W,163020.00,A,A*60
12:30:21.243 -> $GNRMC,163021.00,A,4531.85638,N,07336.82444,W,2.256,305.03,220719,,,A*60
12:30:21.309 -> $GNVTG,305.03,T,,M,2.256,N,4.179,K,A*2E
12:30:21.343 -> $GNGGA,163021.00,4531.85638,N,07336.82444,W,1,11,1.94,75.2,M,-32.7,M,,*4C
12:30:21.409 -> $GNGSA,A,3,17,19,03,24,22,01,,,,,,,2.53,1.94,1.61*18
12:30:21.475 -> $GNGSA,A,3,83,82,74,66,67,,,,,,,,2.53,1.94,1.61*11
12:30:21.542 -> $GPGSV,3,1,11,01,16,053,31,02,10,237,,03,40,073,46,06,50,234,*7B
12:30:21.608 -> $GPGSV,3,2,11,11,06,072,,12,06,319,34,17,77,007,52,19,66,310,43*79
12:30:21.675 -> $GPGSV,3,3,11,22,27,053,48,24,17,296,30,28,48,159,28*49
12:30:21.741 -> $GLGSV,3,1,09,66,16,027,35,67,29,080,50,68,12,134,25,73,52,269,27*6A
12:30:21.807 -> $GLGSV,3,2,09,74,29,324,36,80,22,196,16,82,36,054,48,83,65,335,41*6E
12:30:21.874 -> $GLGSV,3,3,09,84,22,269,27*58
12:30:21.907 -> $GNGLL,4531.85638,N,07336.82444,W,163021.00,A,A*6E
12:30:22.239 -> $GNRMC,163022.00,A,4531.85660,N,07336.82520,W,2.013,300.91,220719,,,A*60
12:30:22.306 -> $GNVTG,300.91,T,,M,2.013,N,3.728,K,A*26
12:30:22.339 -> $GNGGA,163022.00,4531.85660,N,07336.82520,W,1,11,1.94,74.9,M,-32.7,M,,*4B
12:30:22.405 -> $GNGSA,A,3,17,19,03,24,22,01,,,,,,,2.53,1.94,1.61*18
12:30:22.472 -> $GNGSA,A,3,83,82,74,66,67,,,,,,,,2.53,1.94,1.61*11
12:30:22.538 -> $GPGSV,3,1,11,01,16,053,28,02,10,237,,03,40,073,47,06,50,234,*72
12:30:22.605 -> $GPGSV,3,2,11,11,06,072,,12,06,319,36,17,77,007,55,19,66,310,45*7A
12:30:22.671 -> $GPGSV,3,3,11,22,27,053,45,24,17,296,33,28,48,159,31*4F
12:30:22.738 -> $GLGSV,3,1,09,66,16,027,39,67,29,080,47,68,12,134,26,73,52,269,28*6C
12:30:22.804 -> $GLGSV,3,2,09,74,29,324,38,80,22,196,15,82,36,054,42,83,65,335,40*68
12:30:22.870 -> $GLGSV,3,3,09,84,22,269,25*5A
12:30:22.904 -> $GNGLL,4531.85660,N,07336.82520,W,163022.00,A,A*63
12:30:23.269 -> $GNRMC,163023.00,A,4531.85693,N,07336.82588,W,2.185,298.63,220719,,,A*6C
12:30:23.335 -> $GNVTG,298.63,T,,M,2.185,N,4.046,K,A*2D
12:30:23.369 -> $GNGGA,163023.00,4531.85693,N,07336.82588,W,1,11,1.94,75.1,M,-32.7,M,,*4D
12:30:23.435 -> $GNGSA,A,3,17,19,03,24,22,01,,,,,,,2.53,1.94,1.61*18
12:30:23.502 -> $GNGSA,A,3,83,82,74,66,67,,,,,,,,2.53,1.94,1.61*11
12:30:23.568 -> $GPGSV,3,1,11,01,16,053,27,02,10,237,,03,40,073,47,06,50,234,*7D
12:30:23.634 -> $GPGSV,3,2,11,11,06,072,,12,06,319,36,17,77,007,51,19,66,311,42*78
12:30:23.701 -> $GPGSV,3,3,11,22,27,053,44,24,17,296,29,28,48,159,26*43
12:30:23.767 -> $GLGSV,3,1,09,66,16,027,42,67,29,080,46,68,12,134,26,73,52,269,33*6B
12:30:23.834 -> $GLGSV,3,2,09,74,29,324,42,80,22,196,17,82,36,054,48,83,65,335,41*6C
12:30:23.900 -> $GLGSV,3,3,09,84,22,269,26*59
12:30:23.933 -> $GNGLL,4531.85693,N,07336.82588,W,163023.00,A,A*6C
12:30:24.232 -> $GNRMC,163024.00,A,4531.85723,N,07336.82660,W,2.186,298.72,220719,,,A*67
12:30:24.299 -> $GNVTG,298.72,T,,M,2.186,N,4.049,K,A*21
12:30:24.332 -> $GNGGA,163024.00,4531.85723,N,07336.82660,W,1,11,1.94,75.1,M,-32.7,M,,*45
12:30:24.399 -> $GNGSA,A,3,17,19,03,24,22,01,,,,,,,2.53,1.94,1.61*18
12:30:24.465 -> $GNGSA,A,3,83,82,74,66,67,,,,,,,,2.53,1.94,1.61*11
12:30:24.531 -> $GPGSV,3,1,11,01,16,053,33,02,10,237,,03,40,073,46,06,50,234,*79
12:30:24.598 -> $GPGSV,3,2,11,11,06,072,,12,06,319,35,17,77,007,51,19,66,311,45*7C
12:30:24.664 -> $GPGSV,3,3,11,22,27,053,41,24,17,296,28,28,48,159,26*47
12:30:24.731 -> $GLGSV,3,1,09,66,16,027,33,67,29,080,47,68,12,134,26,73,52,269,30*6F
12:30:24.797 -> $GLGSV,3,2,09,74,29,324,41,80,22,196,16,82,36,054,53,83,65,335,44*61
12:30:24.897 -> $GLGSV,3,3,09,84,22,269,27*58
12:30:24.930 -> $GNGLL,4531.85723,N,07336.82660,W,163024.00,A,A*64
12:30:25.262 -> $GNRMC,163025.00,A,4531.85742,N,07336.82739,W,2.180,295.46,220719,,,A*60
12:30:25.329 -> $GNVTG,295.46,T,,M,2.180,N,4.037,K,A*24
12:30:25.362 -> $GNGGA,163025.00,4531.85742,N,07336.82739,W,1,10,3.06,74.8,M,-32.7,M,,*4E
12:30:25.428 -> $GNGSA,A,3,17,19,03,22,01,,,,,,,,4.32,3.06,3.05*16
12:30:25.495 -> $GNGSA,A,3,83,82,74,66,67,,,,,,,,4.32,3.06,3.05*19
12:30:25.561 -> $GPGSV,3,1,11,01,16,053,39,02,10,237,,03,40,073,50,06,50,234,31*76
12:30:25.628 -> $GPGSV,3,2,11,11,06,072,,12,06,319,37,17,77,007,47,19,66,311,45*79
12:30:25.694 -> $GPGSV,3,3,11,22,27,053,46,24,17,296,32,28,48,159,25*48
12:30:25.760 -> $GLGSV,3,1,09,66,16,027,28,67,29,080,46,68,12,134,25,73,52,269,30*67
12:30:25.827 -> $GLGSV,3,2,09,74,29,324,48,80,22,196,15,82,36,054,48,83,65,335,43*66
12:30:25.893 -> $GLGSV,3,3,09,84,22,269,26*59
12:30:25.927 -> $GNGLL,4531.85742,N,07336.82739,W,163025.00,A,A*6F
12:30:26.259 -> $GNRMC,163026.00,A,4531.85772,N,07336.82813,W,2.248,301.89,220719,,,A*6F
12:30:26.325 -> $GNVTG,301.89,T,,M,2.248,N,4.163,K,A*2C
12:30:26.358 -> $GNGGA,163026.00,4531.85772,N,07336.82813,W,1,10,3.06,74.8,M,-32.7,M,,*49
12:30:26.425 -> $GNGSA,A,3,17,19,03,22,01,,,,,,,,4.32,3.06,3.05*16
12:30:26.491 -> $GNGSA,A,3,83,82,74,66,67,,,,,,,,4.32,3.06,3.05*19
12:30:26.558 -> $GPGSV,3,1,11,01,16,053,30,02,10,237,33,03,40,073,43,06,50,234,*7F
12:30:26.624 -> $GPGSV,3,2,11,11,06,072,,12,06,319,34,17,77,007,45,19,66,311,41*7C
12:30:26.691 -> $GPGSV,3,3,11,22,26,052,46,24,17,296,,28,48,159,27*4B
12:30:26.757 -> $GLGSV,3,1,09,66,16,027,28,67,29,080,45,68,12,134,24,73,52,269,34*61
12:30:26.823 -> $GLGSV,3,2,09,74,29,324,46,80,22,196,19,82,36,054,51,83,65,335,41*6E
12:30:26.890 -> $GLGSV,3,3,09,84,22,269,26*59
12:30:26.923 -> $GNGLL,4531.85772,N,07336.82813,W,163026.00,A,A*68
12:30:27.256 -> $GNRMC,163027.00,A,4531.85803,N,07336.82880,W,2.055,304.09,220719,,,A*6E
12:30:27.322 -> $GNVTG,304.09,T,,M,2.055,N,3.807,K,A*23
12:30:27.355 -> $GNGGA,163027.00,4531.85803,N,07336.82880,W,1,11,1.94,74.7,M,-32.7,M,,*4C
12:30:27.422 -> $GNGSA,A,3,17,19,03,24,22,01,,,,,,,2.53,1.94,1.61*18
12:30:27.488 -> $GNGSA,A,3,83,82,74,66,67,,,,,,,,2.53,1.94,1.61*11
12:30:27.555 -> $GPGSV,3,1,11,01,16,053,35,02,10,237,36,03,40,073,48,06,50,234,30*77
12:30:27.621 -> $GPGSV,3,2,11,11,06,072,27,12,06,319,34,17,77,007,49,19,66,311,45*71
12:30:27.688 -> $GPGSV,3,3,11,22,26,052,47,24,17,296,35,28,48,159,31*4B
12:30:27.754 -> $GLGSV,3,1,09,66,16,027,37,67,29,080,43,68,12,134,22,73,52,269,31*6A
12:30:27.821 -> $GLGSV,3,2,09,74,29,324,47,80,22,196,16,82,36,054,50,83,65,335,42*62
12:30:27.887 -> $GLGSV,3,3,09,84,22,269,26*59
12:30:27.920 -> $GNGLL,4531.85803,N,07336.82880,W,163027.00,A,A*6A
12:30:28.253 -> $GNRMC,163028.00,A,4531.85849,N,07336.82949,W,2.459,303.89,220719,,,A*6C
12:30:28.319 -> $GNVTG,303.89,T,,M,2.459,N,4.553,K,A*2F
12:30:28.352 -> $GNGGA,163028.00,4531.85849,N,07336.82949,W,1,11,1.94,74.9,M,-32.7,M,,*47
12:30:28.419 -> $GNGSA,A,3,17,19,03,24,22,01,,,,,,,2.53,1.94,1.61*18
12:30:28.485 -> $GNGSA,A,3,83,82,74,66,67,,,,,,,,2.53,1.94,1.61*11
12:30:28.552 -> $GPGSV,3,1,11,01,16,053,38,02,10,237,,03,40,073,50,06,50,234,*75
12:30:28.618 -> $GPGSV,3,2,11,11,06,072,,12,06,319,30,17,77,007,48,19,66,311,48*7C
12:30:28.685 -> $GPGSV,3,3,11,22,26,052,48,24,17,296,34,28,48,159,26*43
12:30:28.751 -> $GLGSV,3,1,09,66,16,027,37,67,29,080,45,68,12,134,22,73,52,269,39*64
12:30:28.818 -> $GLGSV,3,2,09,74,29,324,40,80,22,196,18,82,36,054,46,83,65,335,41*6F
12:30:28.884 -> $GLGSV,3,3,09,84,22,269,32*5C
12:30:28.917 -> $GNGLL,4531.85849,N,07336.82949,W,163028.00,A,A*6F
12:30:29.250 -> $GNRMC,163029.00,A,4531.85897,N,07336.83018,W,2.122,301.28,220719,,,A*62
12:30:29.316 -> $GNVTG,301.28,T,,M,2.122,N,3.931,K,A*20
12:30:29.349 -> $GNGGA,163029.00,4531.85897,N,07336.83018,W,1,11,1.94,75.3,M,-32.7,M,,*42
12:30:29.416 -> $GNGSA,A,3,17,19,03,24,22,01,,,,,,,2.53,1.94,1.61*18
12:30:29.482 -> $GNGSA,A,3,83,82,74,66,67,,,,,,,,2.53,1.94,1.61*11
12:30:29.549 -> $GPGSV,3,1,11,01,16,053,33,02,10,237,,03,40,073,38,06,50,234,29*7B
12:30:29.615 -> $GPGSV,3,2,11,11,06,072,,12,06,319,29,17,77,007,49,19,66,311,45*78
12:30:29.682 -> $GPGSV,3,3,11,22,26,052,44,24,17,296,34,28,48,159,26*4F
12:30:29.748 -> $GLGSV,3,1,09,66,16,027,38,67,29,080,45,68,12,134,22,73,52,269,47*62
12:30:29.815 -> $GLGSV,3,2,09,74,29,324,44,80,22,196,19,82,36,054,49,83,65,335,39*6A
12:30:29.881 -> $GLGSV,3,3,09,84,22,269,37*59
12:30:29.914 -> $GNGLL,4531.85897,N,07336.83018,W,163029.00,A,A*61
12:30:30.247 -> $GNRMC,163030.00,A,4531.85921,N,07336.83096,W,2.095,296.87,220719,,,A*67
12:30:30.313 -> $GNVTG,296.87,T,,M,2.095,N,3.880,K,A*2C
12:30:30.346 -> $GNGGA,163030.00,4531.85921,N,07336.83096,W,1,11,3.06,75.1,M,-32.7,M,,*4B
12:30:30.413 -> $GNGSA,A,3,17,19,03,24,22,01,,,,,,,4.32,3.06,3.05*10
12:30:30.479 -> $GNGSA,A,3,83,82,74,66,67,,,,,,,,4.32,3.06,3.05*19
12:30:30.546 -> $GPGSV,3,1,11,01,16,053,40,02,10,237,,03,40,073,51,06,50,234,41*7E
12:30:30.612 -> $GPGSV,3,2,11,11,06,072,,12,06,319,29,17,77,007,49,19,66,311,49*74
12:30:30.678 -> $GPGSV,3,3,11,22,26,052,47,24,17,296,32,28,48,159,26*4A
12:30:30.745 -> $GLGSV,3,1,09,66,16,027,24,67,29,080,49,68,12,134,23,73,52,269,50*64
12:30:30.811 -> $GLGSV,3,2,09,74,29,324,42,80,22,196,19,82,36,054,40,83,65,335,38*64
12:30:30.878 -> $GLGSV,3,3,09,84,22,269,32*5C
12:30:30.911 -> $GNGLL,4531.85921,N,07336.83096,W,163030.00,A,A*63
12:30:31.276 -> $GNRMC,163031.00,A,4531.85944,N,07336.83171,W,1.978,293.79,220719,,,A*60
12:30:31.343 -> $GNVTG,293.79,T,,M,1.978,N,3.663,K,A*22
12:30:31.376 -> $GNGGA,163031.00,4531.85944,N,07336.83171,W,1,11,1.95,75.0,M,-32.7,M,,*48
12:30:31.442 -> $GNGSA,A,3,17,19,03,24,22,01,,,,,,,2.53,1.95,1.61*19
12:30:31.509 -> $GNGSA,A,3,83,82,74,66,67,,,,,,,,2.53,1.95,1.61*10
12:30:31.575 -> $GPGSV,3,1,11,01,16,053,40,02,10,237,,03,40,073,52,06,50,234,48*74
12:30:31.642 -> $GPGSV,3,2,11,11,06,072,,12,06,319,33,17,77,007,52,19,66,311,49*75
12:30:31.708 -> $GPGSV,3,3,11,22,26,052,48,24,17,296,32,28,48,159,27*44
12:30:31.774 -> $GLGSV,3,1,09,66,16,027,35,67,29,080,48,68,12,134,23,73,52,269,49*6D
12:30:31.841 -> $GLGSV,3,2,09,74,29,324,43,80,22,196,21,82,36,054,49,83,65,335,40*68
12:30:31.907 -> $GLGSV,3,3,09,84,22,269,27*58
12:30:31.940 -> $GNGLL,4531.85944,N,07336.83171,W,163031.00,A,A*69
12:30:32.273 -> $GNRMC,163032.00,A,4531.85959,N,07336.83246,W,1.963,290.32,220719,,,A*6E
12:30:32.339 -> $GNVTG,290.32,T,,M,1.963,N,3.635,K,A*27
12:30:32.372 -> $GNGGA,163032.00,4531.85959,N,07336.83246,W,1,11,1.95,74.8,M,-32.7,M,,*49
12:30:32.439 -> $GNGSA,A,3,17,19,03,24,22,01,,,,,,,2.56,1.95,1.66*1B
12:30:32.505 -> $GNGSA,A,3,83,82,74,66,67,,,,,,,,2.56,1.95,1.66*12
12:30:32.572 -> $GPGSV,3,1,11,01,16,053,38,02,10,237,,03,40,073,45,06,50,234,49*7C
12:30:32.638 -> $GPGSV,3,2,11,11,06,072,,12,06,319,38,17,77,007,51,19,66,311,46*72
12:30:32.705 -> $GPGSV,3,3,11,22,26,052,48,24,17,296,24,28,48,159,24*40
12:30:32.771 -> $GLGSV,3,1,09,66,16,027,35,67,29,080,47,68,12,134,29,73,52,269,52*62
12:30:32.837 -> $GLGSV,3,2,09,74,29,324,46,80,22,196,21,82,36,054,46,83,65,335,39*6C
12:30:32.904 -> $GLGSV,3,3,09,84,22,269,33*5D
12:30:32.937 -> $GNGLL,4531.85959,N,07336.83246,W,163032.00,A,A*61
12:30:33.236 -> $GNRMC,163033.00,A,4531.85978,N,07336.83300,W,1.225,288.20,220719,,,A*6C
12:30:33.336 -> $GNVTG,288.20,T,,M,1.225,N,2.269,K,A*28
12:30:33.369 -> $GNGGA,163033.00,4531.85978,N,07336.83300,W,1,11,1.95,74.8,M,-32.7,M,,*48
12:30:33.435 -> $GNGSA,A,3,17,19,03,24,22,01,,,,,,,2.53,1.95,1.61*19
12:30:33.502 -> $GNGSA,A,3,83,82,74,66,67,,,,,,,,2.53,1.95,1.61*10
12:30:33.568 -> $GPGSV,3,1,11,01,16,053,36,02,10,237,,03,40,073,50,06,50,234,50*7E
12:30:33.635 -> $GPGSV,3,2,11,11,06,072,,12,06,319,36,17,77,007,51,19,66,311,45*7F
12:30:33.701 -> $GPGSV,3,3,11,22,26,052,44,24,17,296,32,28,48,159,26*49
12:30:33.768 -> $GLGSV,3,1,09,66,16,027,34,67,29,080,45,68,12,134,23,73,52,269,48*60
12:30:33.834 -> $GLGSV,3,2,09,74,29,324,44,80,22,196,30,82,36,054,48,83,65,335,39*60
12:30:33.901 -> $GLGSV,3,3,09,84,22,269,32*5C
12:30:33.934 -> $GNGLL,4531.85978,N,07336.83300,W,163033.00,A,A*60
12:30:34.266 -> $GNRMC,163034.00,A,4531.85997,N,07336.83322,W,0.437,,220719,,,A*70
12:30:34.333 -> $GNVTG,,T,,M,0.437,N,0.810,K,A*34
12:30:34.366 -> $GNGGA,163034.00,4531.85997,N,07336.83322,W,1,10,3.07,74.8,M,-32.7,M,,*46
12:30:34.432 -> $GNGSA,A,3,17,19,03,22,01,,,,,,,,4.33,3.07,3.05*16
12:30:34.499 -> $GNGSA,A,3,83,82,74,66,67,,,,,,,,4.33,3.07,3.05*19
12:30:34.532 -> $GPGSV,3,1,11,01,16,053,38,02,10,237,36,03,40,073,49,06,50,234,47*7B
12:30:34.632 -> $GPGSV,3,2,11,11,06,072,,12,06,319,38,17,77,007,50,19,66,311,48*7D
12:30:34.698 -> $GPGSV,3,3,11,22,26,052,44,24,17,296,,28,48,159,31*4E
12:30:34.731 -> $GLGSV,3,1,10,66,16,027,31,67,29,080,48,68,12,134,22,73,52,269,50*68
12:30:34.831 -> $GLGSV,3,2,10,74,29,324,41,80,22,196,30,82,36,054,45,83,65,335,38*61
12:30:34.898 -> $GLGSV,3,3,10,84,22,269,34,,,,45*53
12:30:34.931 -> $GNGLL,4531.85997,N,07336.83322,W,163034.00,A,A*66
12:30:35.263 -> $GNRMC,163035.00,A,4531.86009,N,07336.83326,W,0.464,249.89,220719,,,A*6E
12:30:35.329 -> $GNVTG,249.89,T,,M,0.464,N,0.860,K,A*25
12:30:35.362 -> $GNGGA,163035.00,4531.86009,N,07336.83326,W,1,10,3.07,74.9,M,-32.7,M,,*4F
12:30:35.429 -> $GNGSA,A,3,17,19,03,22,01,,,,,,,,4.33,3.07,3.05*16
12:30:35.495 -> $GNGSA,A,3,83,82,74,66,67,,,,,,,,4.33,3.07,3.05*19
12:30:35.562 -> $GPGSV,3,1,11,01,16,053,34,02,10,237,40,03,40,073,47,06,50,234,49*76
12:30:35.628 -> $GPGSV,3,2,11,11,06,072,,12,06,319,35,17,77,007,51,19,66,311,48*71
12:30:35.695 -> $GPGSV,3,3,11,22,26,052,46,24,17,296,,28,48,159,29*45
12:30:35.761 -> $GLGSV,3,1,10,66,16,027,23,67,29,080,50,68,12,134,23,73,52,269,51*62
12:30:35.828 -> $GLGSV,3,2,10,74,29,324,43,80,22,196,31,82,36,054,47,83,65,335,38*60
12:30:35.894 -> $GLGSV,3,3,10,84,22,269,32,,,,44*54
12:30:35.927 -> $GNGLL,4531.86009,N,07336.83326,W,163035.00,A,A*6E
12:30:36.260 -> $GNRMC,163036.00,A,4531.86010,N,07336.83328,W,0.301,,220719,,,A*7F
12:30:36.326 -> $GNVTG,,T,,M,0.301,N,0.557,K,A*38
12:30:36.359 -> $GNGGA,163036.00,4531.86010,N,07336.83328,W,1,10,3.07,74.8,M,-32.7,M,,*4B
12:30:36.426 -> $GNGSA,A,3,17,19,03,22,01,,,,,,,,4.33,3.07,3.05*16
12:30:36.492 -> $GNGSA,A,3,83,82,74,66,67,,,,,,,,4.33,3.07,3.05*19
12:30:36.526 -> $GPGSV,3,1,11,01,16,053,35,02,10,237,38,03,40,073,48,06,50,234,47*79
12:30:36.625 -> $GPGSV,3,2,11,11,06,072,,12,06,319,33,17,77,007,52,19,66,311,47*7B
12:30:36.692 -> $GPGSV,3,3,11,22,26,052,45,24,17,296,,28,48,159,28*47
12:30:36.725 -> $GLGSV,3,1,10,66,16,027,24,67,29,080,50,68,12,134,22,73,52,269,53*66
