15:05:06.666 -> $GNGLL,4531.86656,N,07336.79195,W,190508.00,A,A*6A
15:05:07.031 -> $GNRMC,190509.00,A,4531.86655,N,07336.79203,W,0.002,,220719,,,A*70
15:05:07.098 -> $GNVTG,,T,,M,0.002,N,0.004,K,A*3B
15:05:07.131 -> $GNGGA,190509.00,4531.86655,N,07336.79203,W,1,12,0.73,62.1,M,-32.7,M,,*48
15:05:07.197 -> $GNGSA,A,3,02,12,19,17,05,09,06,23,,,,,1.39,0.73,1.18*1F
15:05:07.264 -> $GNGSA,A,3,84,69,68,85,83,75,76,,,,,,1.39,0.73,1.18*13
15:05:07.330 -> $GPGSV,3,1,10,02,66,296,48,05,33,211,50,06,59,060,50,09,29,084,48*70
15:05:07.396 -> $GPGSV,3,2,10,12,44,262,38,17,26,130,40,19,41,127,49,23,16,045,41*75
15:05:07.463 -> $GPGSV,3,3,10,25,26,308,31,29,02,309,28*7B
15:05:07.496 -> $GLGSV,3,1,10,68,40,044,48,69,59,130,49,70,15,183,20,74,10,241,27*67
15:05:07.595 -> $GLGSV,3,2,10,75,21,295,41,76,10,343,30,83,24,098,40,84,67,029,47*65
15:05:07.661 -> $GLGSV,3,3,10,85,29,308,35,90,,,51*52
15:05:07.695 -> $GNGLL,4531.86655,N,07336.79203,W,190509.00,A,A*64
15:05:08.027 -> $GNRMC,190510.00,A,4531.86654,N,07336.79210,W,0.031,,220719,,,A*7B
15:05:08.093 -> $GNVTG,,T,,M,0.031,N,0.057,K,A*3D
15:05:08.126 -> $GNGGA,190510.00,4531.86654,N,07336.79210,W,1,12,0.73,62.0,M,-32.7,M,,*42
15:05:08.193 -> $GNGSA,A,3,02,12,19,17,05,09,06,23,,,,,1.39,0.73,1.18*1F
15:05:08.259 -> $GNGSA,A,3,84,69,68,85,83,75,76,,,,,,1.39,0.73,1.18*13
15:05:08.326 -> $GPGSV,3,1,10,02,66,296,48,05,33,211,50,06,59,060,49,09,29,084,48*78
15:05:08.392 -> $GPGSV,3,2,10,12,44,262,38,17,26,130,41,19,41,127,49,23,16,045,42*77
15:05:08.459 -> $GPGSV,3,3,10,25,26,308,31,29,02,309,28*7B
15:05:08.492 -> $GLGSV,3,1,10,68,40,044,47,69,59,130,49,70,15,183,21,74,10,241,27*69
15:05:08.592 -> $GLGSV,3,2,10,75,21,295,41,76,10,343,30,83,24,098,40,84,67,029,47*65
15:05:08.658 -> $GLGSV,3,3,10,85,29,308,35,90,,,51*52
15:05:08.691 -> $GNGLL,4531.86654,N,07336.79210,W,190510.00,A,A*6F
15:05:09.024 -> $GNRMC,190511.00,A,4531.86652,N,07336.79219,W,0.045,,220719,,,A*76
15:05:09.090 -> $GNVTG,,T,,M,0.045,N,0.084,K,A*30
15:05:09.123 -> $GNGGA,190511.00,4531.86652,N,07336.79219,W,1,12,0.73,61.9,M,-32.7,M,,*46
15:05:09.190 -> $GNGSA,A,3,02,12,19,17,05,09,06,23,,,,,1.39,0.73,1.18*1F
15:05:09.256 -> $GNGSA,A,3,84,69,68,85,83,75,76,,,,,,1.39,0.73,1.18*13
15:05:09.323 -> $GPGSV,3,1,10,02,66,296,48,05,33,211,50,06,59,060,50,09,29,084,47*7F
15:05:09.389 -> $GPGSV,3,2,10,12,44,262,35,17,26,130,40,19,41,127,49,23,16,045,41*78
15:05:09.456 -> $GPGSV,3,3,10,25,26,308,,29,02,309,28*79
15:05:09.489 -> $GLGSV,3,1,10,68,40,044,48,69,59,130,48,70,15,183,20,74,10,241,27*66
15:05:09.589 -> $GLGSV,3,2,10,75,21,295,41,76,10,343,29,83,24,098,40,84,67,029,47*6D
15:05:09.655 -> $GLGSV,3,3,10,85,29,308,36,90,,,51*51
15:05:09.688 -> $GNGLL,4531.86652,N,07336.79219,W,190511.00,A,A*61
15:05:10.021 -> $GNRMC,190512.00,A,4531.86650,N,07336.79225,W,0.038,,220719,,,A*72
15:05:10.087 -> $GNVTG,,T,,M,0.038,N,0.070,K,A*31
15:05:10.120 -> $GNGGA,190512.00,4531.86650,N,07336.79225,W,1,12,0.77,61.9,M,-32.7,M,,*4C
15:05:10.187 -> $GNGSA,A,3,02,12,19,17,05,09,06,23,,,,,1.50,0.77,1.29*16
15:05:10.253 -> $GNGSA,A,3,84,69,68,85,83,75,76,,,,,,1.50,0.77,1.29*1A
15:05:10.320 -> $GPGSV,3,1,10,02,66,296,47,05,33,211,51,06,59,060,51,09,29,084,41*76
15:05:10.386 -> $GPGSV,3,2,10,12,44,262,30,17,26,130,40,19,41,127,49,23,16,045,36*7D
15:05:10.453 -> $GPGSV,3,3,10,25,26,308,,29,02,309,25*74
15:05:10.486 -> $GLGSV,3,1,10,68,40,044,49,69,59,130,48,70,15,183,20,74,10,241,26*66
15:05:10.586 -> $GLGSV,3,2,10,75,21,295,42,76,10,343,34,83,24,098,39,84,67,029,47*6C
15:05:10.652 -> $GLGSV,3,3,10,85,29,308,38,,,,51*56
15:05:10.685 -> $GNGLL,4531.86650,N,07336.79225,W,190512.00,A,A*6F
15:05:11.018 -> $GNRMC,190513.00,A,4531.86648,N,07336.79229,W,0.065,,220719,,,A*7E
15:05:11.084 -> $GNVTG,,T,,M,0.065,N,0.120,K,A*3D
15:05:11.117 -> $GNGGA,190513.00,4531.86648,N,07336.79229,W,1,12,0.77,62.0,M,-32.7,M,,*42
15:05:11.184 -> $GNGSA,A,3,02,12,19,17,05,09,06,23,,,,,1.50,0.77,1.29*16
15:05:11.250 -> $GNGSA,A,3,84,69,68,85,83,75,76,,,,,,1.50,0.77,1.29*1A
15:05:11.317 -> $GPGSV,3,1,10,02,66,296,48,05,33,211,51,06,59,060,51,09,29,084,44*7C
15:05:11.383 -> $GPGSV,3,2,10,12,44,262,34,17,26,130,40,19,41,127,48,23,16,045,41*78
15:05:11.450 -> $GPGSV,3,3,10,25,26,308,,29,02,309,23*72
15:05:11.483 -> $GLGSV,3,1,10,68,40,044,49,69,60,129,49,70,15,183,22,74,10,241,25*64
15:05:11.583 -> $GLGSV,3,2,10,75,21,295,42,76,10,343,30,83,24,098,38,84,67,029,46*68
15:05:11.649 -> $GLGSV,3,3,10,85,29,308,39,,,,51*57
15:05:11.683 -> $GNGLL,4531.86648,N,07336.79229,W,190513.00,A,A*6B
15:05:12.015 -> $GNRMC,190514.00,A,4531.86646,N,07336.79234,W,0.072,,220719,,,A*7D
15:05:12.081 -> $GNVTG,,T,,M,0.072,N,0.134,K,A*3E
15:05:12.114 -> $GNGGA,190514.00,4531.86646,N,07336.79234,W,1,12,0.77,62.0,M,-32.7,M,,*47
15:05:12.181 -> $GNGSA,A,3,02,12,19,17,05,09,06,23,,,,,1.50,0.77,1.29*16
15:05:12.247 -> $GNGSA,A,3,84,69,68,85,83,75,76,,,,,,1.50,0.77,1.29*1A
15:05:12.314 -> $GPGSV,3,1,10,02,66,296,47,05,33,211,51,06,59,060,51,09,29,084,40*77
15:05:12.380 -> $GPGSV,3,2,10,12,44,262,29,17,26,130,41,19,41,127,48,23,16,045,37*74
15:05:12.447 -> $GPGSV,3,3,10,25,26,308,,29,02,309,22*73
15:05:12.480 -> $GLGSV,3,1,10,68,40,044,49,69,60,129,48,70,16,183,23,74,10,241,24*66
15:05:12.580 -> $GLGSV,3,2,10,75,21,295,42,76,10,343,37,83,24,098,38,84,67,029,46*6F
15:05:12.646 -> $GLGSV,3,3,10,85,29,308,39,,,,51*57
15:05:12.679 -> $GNGLL,4531.86646,N,07336.79234,W,190514.00,A,A*6E
15:05:13.012 -> $GNRMC,190515.00,A,4531.86643,N,07336.79238,W,0.049,,220719,,,A*7D
15:05:13.078 -> $GNVTG,,T,,M,0.049,N,0.091,K,A*38
15:05:13.111 -> $GNGGA,190515.00,4531.86643,N,07336.79238,W,1,12,0.77,62.0,M,-32.7,M,,*4F
15:05:13.178 -> $GNGSA,A,3,02,12,19,17,05,09,06,23,,,,,1.50,0.77,1.29*16
15:05:13.244 -> $GNGSA,A,3,84,69,68,85,83,75,76,,,,,,1.50,0.77,1.29*1A
15:05:13.311 -> $GPGSV,3,1,10,02,66,296,47,05,33,211,51,06,59,060,50,09,29,084,39*78
15:05:13.377 -> $GPGSV,3,2,10,12,44,262,27,17,26,130,40,19,41,127,48,23,16,045,37*7B
15:05:13.444 -> $GPGSV,3,3,10,25,26,308,,29,02,309,19*7B
15:05:13.477 -> $GLGSV,3,1,10,68,40,044,50,69,60,129,47,70,16,183,21,74,10,241,22*65
15:05:13.577 -> $GLGSV,3,2,10,75,21,295,43,76,10,343,38,83,24,098,37,84,67,029,47*6F
15:05:13.643 -> $GLGSV,3,3,10,85,29,308,39,,,,51*57
15:05:13.676 -> $GNGLL,4531.86643,N,07336.79238,W,190515.00,A,A*66
15:05:14.042 -> $GNRMC,190516.00,A,4531.86641,N,07336.79239,W,0.033,,220719,,,A*70
15:05:14.109 -> $GNVTG,,T,,M,0.033,N,0.061,K,A*3A
15:05:14.142 -> $GNGGA,190516.00,4531.86641,N,07336.79239,W,1,12,0.77,62.0,M,-32.7,M,,*4F
15:05:14.208 -> $GNGSA,A,3,02,12,19,17,05,09,06,23,,,,,1.50,0.77,1.29*16
15:05:14.275 -> $GNGSA,A,3,84,69,68,85,83,75,76,,,,,,1.50,0.77,1.29*1A
15:05:14.341 -> $GPGSV,3,1,10,02,66,296,47,05,33,211,51,06,59,060,51,09,29,084,43*74
15:05:14.407 -> $GPGSV,3,2,10,12,44,262,27,17,26,130,40,19,41,127,48,23,16,045,40*7B
15:05:14.474 -> $GPGSV,3,3,10,25,26,308,,29,02,309,*73
15:05:14.507 -> $GLGSV,3,1,10,68,40,044,48,69,60,129,48,70,16,183,20,74,10,241,21*61
15:05:14.573 -> $GLGSV,3,2,10,75,21,295,42,76,10,343,38,83,24,098,38,84,67,029,46*60
15:05:14.673 -> $GLGSV,3,3,10,85,29,308,39,,,,51*57
15:05:14.706 -> $GNGLL,4531.86641,N,07336.79239,W,190516.00,A,A*66
15:05:15.006 -> $GNRMC,190517.00,A,4531.86640,N,07336.79241,W,0.003,,220719,,,A*7C
15:05:15.072 -> $GNVTG,,T,,M,0.003,N,0.006,K,A*38
15:05:15.105 -> $GNGGA,190517.00,4531.86640,N,07336.79241,W,1,12,0.77,62.0,M,-32.7,M,,*40
15:05:15.172 -> $GNGSA,A,3,02,12,19,17,05,09,06,23,,,,,1.50,0.77,1.29*16
15:05:15.238 -> $GNGSA,A,3,84,69,68,85,83,75,76,,,,,,1.50,0.77,1.29*1A
15:05:15.305 -> $GPGSV,3,1,10,02,66,296,48,05,33,211,51,06,59,060,50,09,29,084,43*7A
15:05:15.371 -> $GPGSV,3,2,10,12,44,262,30,17,26,130,41,19,41,127,48,23,16,045,42*7E
15:05:15.438 -> $GPGSV,3,3,10,25,26,308,,29,02,309,*73
15:05:15.471 -> $GLGSV,3,1,10,68,40,044,48,69,60,129,48,70,16,183,23,74,10,241,21*62
15:05:15.537 -> $GLGSV,3,2,10,75,21,295,42,76,10,343,37,83,24,098,38,84,67,029,46*6F
15:05:15.637 -> $GLGSV,3,3,10,85,29,308,39,,,,51*57
15:05:15.670 -> $GNGLL,4531.86640,N,07336.79241,W,190517.00,A,A*69
15:05:16.002 -> $GNRMC,190518.00,A,4531.86637,N,07336.79242,W,0.012,,220719,,,A*70
15:05:16.069 -> $GNVTG,,T,,M,0.012,N,0.023,K,A*3F
15:05:16.102 -> $GNGGA,190518.00,4531.86637,N,07336.79242,W,1,12,0.77,62.0,M,-32.7,M,,*4C
15:05:16.168 -> $GNGSA,A,3,02,12,19,17,05,09,06,23,,,,,1.50,0.77,1.29*16
15:05:16.235 -> $GNGSA,A,3,84,69,68,85,83,75,76,,,,,,1.50,0.77,1.29*1A
15:05:16.301 -> $GPGSV,3,1,10,02,66,296,48,05,33,211,50,06,59,060,50,09,29,084,43*7B
15:05:16.368 -> $GPGSV,3,2,10,12,44,262,30,17,26,130,40,19,41,127,48,23,16,045,42*7F
15:05:16.434 -> $GPGSV,3,3,10,25,26,308,,29,02,309,*73
15:05:16.467 -> $GLGSV,3,1,10,68,40,044,47,69,60,129,47,70,16,183,25,74,10,241,20*65
15:05:16.534 -> $GLGSV,3,2,10,75,21,295,42,76,10,343,36,83,24,098,37,84,67,029,46*61
15:05:16.633 -> $GLGSV,3,3,10,85,29,308,39,,,,51*57
15:05:16.700 -> $GNGLL,4531.86637,N,07336.79242,W,190518.00,A,A*65
15:05:16.998 -> $GNRMC,190519.00,A,4531.86636,N,07336.79243,W,0.082,,220719,,,A*78
15:05:17.065 -> $GNVTG,,T,,M,0.082,N,0.152,K,A*31
15:05:17.098 -> $GNGGA,190519.00,4531.86636,N,07336.79243,W,1,12,0.77,62.1,M,-32.7,M,,*4C
15:05:17.305 -> $GNGSA,A,3,02,12,19,17,05,09,06,23,,,,,1.50,0.77,1.29*16
15:05:17.305 -> $GNGSA,A,3,84,69,68,85,83,75,76,,,,,,1.50,0.77,1.29*1A
15:05:17.305 -> $GPGSV,3,1,10,02,66,296,48,05,33,211,50,06,59,060,50,09,29,084,46*7E
15:05:17.363 -> $GPGSV,3,2,10,12,44,262,31,17,26,130,40,19,41,127,49,23,16,045,43*7E
15:05:17.462 -> $GPGSV,3,3,10,25,26,308,,29,02,309,*73
15:05:17.495 -> $GLGSV,3,1,10,68,40,044,48,69,60,129,47,70,16,183,26,74,10,241,20*69
15:05:17.562 -> $GLGSV,3,2,10,75,21,295,42,76,10,343,35,83,24,098,38,84,67,029,46*6D
15:05:17.662 -> $GLGSV,3,3,10,85,29,308,35,,,,51*5B
15:05:17.695 -> $GNGLL,4531.86636,N,07336.79243,W,190519.00,A,A*64
15:05:18.027 -> $GNRMC,190520.00,A,4531.86635,N,07336.79242,W,0.037,,220719,,,A*7E
15:05:18.094 -> $GNVTG,,T,,M,0.037,N,0.069,K,A*36
15:05:18.127 -> $GNGGA,190520.00,4531.86635,N,07336.79242,W,1,12,0.77,62.1,M,-32.7,M,,*44
15:05:18.194 -> $GNGSA,A,3,02,12,19,17,05,09,06,23,,,,,1.50,0.77,1.29*16
15:05:18.260 -> $GNGSA,A,3,84,69,68,85,83,75,76,,,,,,1.50,0.77,1.29*1A
15:05:18.327 -> $GPGSV,3,1,10,02,66,296,48,05,33,211,50,06,59,060,49,09,29,084,46*76
15:05:18.393 -> $GPGSV,3,2,10,12,44,262,36,17,26,130,41,19,41,127,49,23,16,045,39*75
15:05:18.460 -> $GPGSV,3,3,10,25,26,308,,29,02,309,*73
15:05:18.493 -> $GLGSV,3,1,10,68,40,044,49,69,60,129,46,70,16,183,26,74,10,241,19*63
15:05:18.559 -> $GLGSV,3,2,10,75,21,295,39,76,10,343,31,83,24,098,37,84,67,029,44*68
15:05:18.659 -> $GLGSV,3,3,10,85,29,308,30,,,,51*5E
15:05:18.692 -> $GNGLL,4531.86635,N,07336.79242,W,190520.00,A,A*6C
15:05:19.025 -> $GNRMC,190521.00,A,4531.86632,N,07336.79243,W,0.015,,220719,,,A*79
15:05:19.091 -> $GNVTG,,T,,M,0.015,N,0.028,K,A*33
15:05:19.124 -> $GNGGA,190521.00,4531.86632,N,07336.79243,W,1,12,0.73,62.1,M,-32.7,M,,*47
15:05:19.191 -> $GNGSA,A,3,02,12,19,17,05,09,06,23,,,,,1.39,0.73,1.18*1F
15:05:19.257 -> $GNGSA,A,3,84,69,68,85,83,75,76,,,,,,1.39,0.73,1.18*13
15:05:19.324 -> $GPGSV,3,1,10,02,66,296,48,05,33,211,50,06,59,060,49,09,29,084,46*76
15:05:19.390 -> $GPGSV,3,2,10,12,44,262,36,17,26,130,42,19,41,127,49,23,16,045,34*7B
15:05:19.457 -> $GPGSV,3,3,10,25,26,308,31,29,02,309,*71
15:05:19.490 -> $GLGSV,3,1,10,68,40,044,50,69,60,129,48,70,16,183,23,74,10,241,19*60
15:05:19.590 -> $GLGSV,3,2,10,75,21,295,40,76,10,343,31,83,24,098,36,84,67,029,45*66
15:05:19.656 -> $GLGSV,3,3,10,85,29,308,23,,,,52*5F
15:05:19.689 -> $GNGLL,4531.86632,N,07336.79243,W,190521.00,A,A*6B
15:05:20.022 -> $GNRMC,190522.00,A,4531.86630,N,07336.79245,W,0.026,,220719,,,A*7E
15:05:20.088 -> $GNVTG,,T,,M,0.026,N,0.048,K,A*35
15:05:20.121 -> $GNGGA,190522.00,4531.86630,N,07336.79245,W,1,12,0.77,62.1,M,-32.7,M,,*44
15:05:20.188 -> $GNGSA,A,3,02,12,19,17,05,09,06,23,,,,,1.50,0.77,1.29*16
15:05:20.254 -> $GNGSA,A,3,84,69,68,85,83,75,76,,,,,,1.50,0.77,1.29*1A
15:05:20.321 -> $GPGSV,3,1,10,02,66,296,48,05,33,211,50,06,59,060,49,09,29,084,47*77
15:05:20.387 -> $GPGSV,3,2,10,12,44,262,36,17,26,130,42,19,41,127,49,23,16,045,36*79
15:05:20.454 -> $GPGSV,3,3,10,25,26,308,31,29,02,309,*71
15:05:20.487 -> $GLGSV,3,1,10,68,40,044,49,69,60,129,48,70,16,183,22,74,10,241,18*68
15:05:20.587 -> $GLGSV,3,2,10,75,21,295,40,76,10,343,32,83,24,098,36,84,67,029,45*65
15:05:20.653 -> $GLGSV,3,3,10,85,29,308,23,,,,51*5C
15:05:20.686 -> $GNGLL,4531.86630,N,07336.79245,W,190522.00,A,A*6C
15:05:21.019 -> $GNRMC,190523.00,A,4531.86629,N,07336.79248,W,0.021,,220719,,,A*7D
15:05:21.085 -> $GNVTG,,T,,M,0.021,N,0.039,K,A*34
15:05:21.118 -> $GNGGA,190523.00,4531.86629,N,07336.79248,W,1,12,0.77,62.1,M,-32.7,M,,*40
15:05:21.185 -> $GNGSA,A,3,02,12,19,17,05,09,06,23,,,,,1.50,0.77,1.29*16
15:05:21.251 -> $GNGSA,A,3,84,69,68,85,83,75,76,,,,,,1.50,0.77,1.29*1A
15:05:21.318 -> $GPGSV,3,1,10,02,66,296,48,05,33,211,49,06,59,060,49,09,29,084,47*7F
15:05:21.384 -> $GPGSV,3,2,10,12,44,262,36,17,26,130,41,19,41,127,49,23,16,045,38*74
15:05:21.451 -> $GPGSV,3,3,10,25,26,308,30,29,02,309,*70
15:05:21.484 -> $GLGSV,3,1,10,68,40,044,49,69,60,129,48,70,16,183,23,74,10,241,18*69
15:05:21.583 -> $GLGSV,3,2,10,75,21,295,40,76,10,343,33,83,24,098,37,84,67,029,45*65
15:05:21.650 -> $GLGSV,3,3,10,85,29,308,26,,,,51*59
15:05:21.683 -> $GNGLL,4531.86629,N,07336.79248,W,190523.00,A,A*68
15:05:22.015 -> $GNRMC,190524.00,A,4531.86628,N,07336.79254,W,0.084,,220719,,,A*79
15:05:22.082 -> $GNVTG,,T,,M,0.084,N,0.156,K,A*33
15:05:22.115 -> $GNGGA,190524.00,4531.86628,N,07336.79254,W,1,12,0.81,62.0,M,-32.7,M,,*43
15:05:22.182 -> $GNGSA,A,3,02,12,19,17,05,09,06,23,,,,,1.55,0.81,1.32*10
15:05:22.248 -> $GNGSA,A,3,84,69,68,85,83,75,76,,,,,,1.55,0.81,1.32*1C
15:05:22.315 -> $GPGSV,3,1,10,02,66,296,48,05,33,211,50,06,59,060,50,09,29,084,45*7D
15:05:22.381 -> $GPGSV,3,2,10,12,44,262,33,17,26,130,41,19,41,127,49,23,16,045,43*7D
15:05:22.447 -> $GPGSV,3,3,10,25,26,308,,29,02,309,*73
15:05:22.481 -> $GLGSV,3,1,10,68,40,044,49,69,60,129,47,70,16,183,26,74,10,241,17*6C
15:05:22.547 -> $GLGSV,3,2,10,75,21,295,42,76,10,343,35,83,24,098,37,84,67,029,46*62
15:05:22.647 -> $GLGSV,3,3,10,85,29,308,38,,,,51*56
15:05:22.680 -> $GNGLL,4531.86628,N,07336.79254,W,190524.00,A,A*63
15:05:23.012 -> $GNRMC,190525.00,A,4531.86625,N,07336.79256,W,0.059,,220719,,,A*77
15:05:23.079 -> $GNVTG,,T,,M,0.059,N,0.108,K,A*38
15:05:23.112 -> $GNGGA,190525.00,4531.86625,N,07336.79256,W,1,12,0.81,62.0,M,-32.7,M,,*4D
15:05:23.178 -> $GNGSA,A,3,02,12,19,17,05,09,06,23,,,,,1.55,0.81,1.32*10
15:05:23.245 -> $GNGSA,A,3,84,69,68,85,83,75,76,,,,,,1.55,0.81,1.32*1C
15:05:23.311 -> $GPGSV,3,1,10,02,66,296,48,05,33,211,50,06,59,060,49,09,29,084,46*76
15:05:23.378 -> $GPGSV,3,2,10,12,44,262,36,17,26,130,39,19,41,127,48,23,16,045,44*71
15:05:23.444 -> $GPGSV,3,3,10,25,26,308,,29,02,309,*73
15:05:23.478 -> $GLGSV,3,1,10,68,40,044,49,69,60,129,47,70,16,183,27,74,10,241,15*6F
15:05:23.544 -> $GLGSV,3,2,10,75,21,295,42,76,10,343,35,83,24,098,37,84,67,029,46*62
15:05:23.644 -> $GLGSV,3,3,10,85,29,308,37,,,,51*59
15:05:23.677 -> $GNGLL,4531.86625,N,07336.79256,W,190525.00,A,A*6D
15:05:24.010 -> $GNRMC,190526.00,A,4531.86623,N,07336.79258,W,0.061,,220719,,,A*77
15:05:24.076 -> $GNVTG,,T,,M,0.061,N,0.113,K,A*39
15:05:24.109 -> $GNGGA,190526.00,4531.86623,N,07336.79258,W,1,12,0.85,62.1,M,-32.7,M,,*43
15:05:24.176 -> $GNGSA,A,3,02,12,19,17,05,09,06,23,,,,,1.57,0.85,1.32*16
15:05:24.242 -> $GNGSA,A,3,84,69,68,85,83,75,76,,,,,,1.57,0.85,1.32*1A
15:05:24.309 -> $GPGSV,3,1,10,02,66,296,48,05,33,211,48,06,59,060,48,09,29,084,46*7E
15:05:24.375 -> $GPGSV,3,2,10,12,44,262,40,17,26,130,40,19,41,127,48,23,16,045,41*7B
15:05:24.442 -> $GPGSV,3,3,10,25,26,308,,29,02,309,*73
15:05:24.475 -> $GLGSV,3,1,10,68,40,044,50,69,60,129,49,70,16,183,29,74,10,241,13*61
15:05:24.541 -> $GLGSV,3,2,10,75,21,295,41,76,10,343,35,83,24,098,36,84,67,029,46*60
15:05:24.641 -> $GLGSV,3,3,10,85,29,308,30,,,,51*5E
15:05:24.674 -> $GNGLL,4531.86623,N,07336.79258,W,190526.00,A,A*66
15:05:25.006 -> $GNRMC,190527.00,A,4531.86622,N,07336.79257,W,0.121,,220719,,,A*7D
15:05:25.073 -> $GNVTG,,T,,M,0.121,N,0.224,K,A*3B
15:05:25.106 -> $GNGGA,190527.00,4531.86622,N,07336.79257,W,1,12,0.81,62.1,M,-32.7,M,,*48
15:05:25.173 -> $GNGSA,A,3,02,12,19,17,05,09,06,23,,,,,1.55,0.81,1.32*10
15:05:25.239 -> $GNGSA,A,3,84,69,68,85,83,75,76,,,,,,1.55,0.81,1.32*1C
15:05:25.305 -> $GPGSV,3,1,10,02,66,296,48,05,33,211,50,06,59,060,48,09,29,084,45*74
15:05:25.372 -> $GPGSV,3,2,10,12,44,262,39,17,26,130,38,19,41,127,48,23,16,045,43*78
15:05:25.438 -> $GPGSV,3,3,10,25,26,308,,29,02,309,*73
15:05:25.472 -> $GLGSV,3,1,10,68,40,044,49,69,60,129,50,70,16,183,28,74,10,241,16*65
15:05:25.538 -> $GLGSV,3,2,10,75,21,295,42,76,10,343,35,83,23,099,36,84,67,029,46*65
15:05:25.638 -> $GLGSV,3,3,10,85,29,308,29,,,,50*57
15:05:25.671 -> $GNGLL,4531.86622,N,07336.79257,W,190527.00,A,A*69
15:05:26.003 -> $GNRMC,190528.00,A,4531.86620,N,07336.79259,W,0.029,,220719,,,A*77
15:05:26.070 -> $GNVTG,,T,,M,0.029,N,0.054,K,A*37
15:05:26.103 -> $GNGGA,190528.00,4531.86620,N,07336.79259,W,1,12,0.81,62.1,M,-32.7,M,,*4B
15:05:26.169 -> $GNGSA,A,3,02,12,19,17,05,09,06,23,,,,,1.55,0.81,1.32*10
15:05:26.236 -> $GNGSA,A,3,84,69,68,85,83,75,76,,,,,,1.55,0.81,1.32*1C
15:05:26.302 -> $GPGSV,3,1,10,02,66,296,47,05,33,211,50,06,59,060,48,09,29,084,45*7B
15:05:26.368 -> $GPGSV,3,2,10,12,44,262,36,17,26,130,39,19,41,127,47,23,16,045,38*75
15:05:26.435 -> $GPGSV,3,3,10,25,26,308,,29,02,309,*73
15:05:26.468 -> $GLGSV,3,1,10,68,40,044,50,69,60,129,50,70,16,183,26,74,10,241,18*6D
15:05:26.534 -> $GLGSV,3,2,10,75,21,295,43,76,10,343,33,83,23,099,36,84,67,030,44*68
15:05:26.634 -> $GLGSV,3,3,10,85,29,308,30,,,,48*56
15:05:26.667 -> $GNGLL,4531.86620,N,07336.79259,W,190528.00,A,A*6A
15:05:27.000 -> $GNRMC,190529.00,A,4531.86621,N,07336.79261,W,0.066,,220719,,,A*77
15:05:27.066 -> $GNVTG,,T,,M,0.066,N,0.122,K,A*3C
15:05:27.099 -> $GNGGA,190529.00,4531.86621,N,07336.79261,W,1,12,0.77,62.1,M,-32.7,M,,*49
15:05:27.166 -> $GNGSA,A,3,02,12,19,17,05,09,06,23,,,,,1.50,0.77,1.29*16
15:05:27.232 -> $GNGSA,A,3,84,69,68,85,83,75,76,,,,,,1.50,0.77,1.29*1A
15:05:27.299 -> $GPGSV,3,1,10,02,66,296,48,05,33,211,49,06,59,060,48,09,29,084,45*7C
15:05:27.365 -> $GPGSV,3,2,10,12,44,262,39,17,26,130,38,19,41,127,48,23,16,045,32*7E
15:05:27.465 -> $GPGSV,3,3,10,25,26,308,,29,02,309,*73
15:05:27.465 -> $GLGSV,3,1,10,68,40,044,48,69,60,129,47,70,16,183,24,74,10,241,18*60
15:05:27.564 -> $GLGSV,3,2,10,75,21,295,39,76,10,343,34,83,23,099,35,84,67,030,43*66
15:05:27.664 -> $GLGSV,3,3,10,85,30,309,29,,,,47*58
15:05:27.697 -> $GNGLL,4531.86621,N,07336.79261,W,190529.00,A,A*61
15:05:28.028 -> $GNRMC,190530.00,A,4531.86619,N,07336.79261,W,0.024,,220719,,,A*72
15:05:28.095 -> $GNVTG,,T,,M,0.024,N,0.044,K,A*3B
15:05:28.128 -> $GNGGA,190530.00,4531.86619,N,07336.79261,W,1,12,0.75,62.1,M,-32.7,M,,*48
15:05:28.195 -> $GNGSA,A,3,02,12,19,17,05,09,06,23,,,,,1.40,0.75,1.18*17
15:05:28.261 -> $GNGSA,A,3,84,69,68,85,83,75,76,,,,,,1.40,0.75,1.18*1B
15:05:28.327 -> $GPGSV,3,1,10,02,66,296,48,05,33,211,47,06,59,060,47,09,29,084,44*7C
15:05:28.394 -> $GPGSV,3,2,10,12,44,262,40,17,26,130,38,19,41,127,47,23,16,045,36*7B
15:05:28.460 -> $GPGSV,3,3,10,25,26,308,,29,02,309,*73
15:05:28.493 -> $GLGSV,3,1,10,68,40,044,48,69,60,129,46,70,16,183,21,74,10,241,17*6B
15:05:28.560 -> $GLGSV,3,2,10,75,21,295,39,76,10,343,33,83,23,099,35,84,67,030,43*61
15:05:28.659 -> $GLGSV,3,3,10,85,30,309,27,,,,46*57
15:05:28.693 -> $GNGLL,4531.86619,N,07336.79261,W,190530.00,A,A*62
15:05:29.024 -> $GNRMC,190531.00,A,4531.86619,N,07336.79261,W,0.014,,220719,,,A*70
15:05:29.090 -> $GNVTG,,T,,M,0.014,N,0.026,K,A*3C
15:05:29.123 -> $GNGGA,190531.00,4531.86619,N,07336.79261,W,1,12,0.81,62.0,M,-32.7,M,,*43
15:05:29.190 -> $GNGSA,A,3,02,12,19,17,05,09,06,23,,,,,1.55,0.81,1.32*10
15:05:29.256 -> $GNGSA,A,3,84,69,68,85,83,75,76,,,,,,1.55,0.81,1.32*1C
15:05:29.323 -> $GPGSV,3,1,10,02,66,296,46,05,33,211,46,06,59,060,45,09,29,084,43*76
15:05:29.389 -> $GPGSV,3,2,10,12,44,262,37,17,26,130,35,19,41,127,45,23,16,045,29*7A
15:05:29.456 -> $GPGSV,3,3,10,25,26,308,27,29,02,309,*76
15:05:29.489 -> $GLGSV,3,1,10,68,40,044,48,69,60,129,47,70,16,183,21,74,10,241,14*69
15:05:29.589 -> $GLGSV,3,2,10,75,21,295,39,76,10,343,32,83,23,099,33,84,67,030,42*67
15:05:29.655 -> $GLGSV,3,3,10,85,30,309,25,,,,47*54
15:05:29.688 -> $GNGLL,4531.86619,N,07336.79261,W,190531.00,A,A*63
15:05:30.020 -> $GNRMC,190532.00,A,4531.86618,N,07336.79261,W,0.035,,220719,,,A*71
15:05:30.087 -> $GNVTG,,T,,M,0.035,N,0.065,K,A*38
15:05:30.120 -> $GNGGA,190532.00,4531.86618,N,07336.79261,W,1,12,0.84,62.0,M,-32.7,M,,*44
15:05:30.187 -> $GNGSA,A,3,02,12,19,17,05,09,06,23,,,,,1.50,0.84,1.24*17
15:05:30.253 -> $GNGSA,A,3,84,69,68,85,83,75,76,,,,,,1.50,0.84,1.24*1B
15:05:30.320 -> $GPGSV,3,1,10,02,66,296,47,05,33,211,47,06,59,060,47,09,29,084,44*73
15:05:30.386 -> $GPGSV,3,2,10,12,44,262,38,17,26,130,36,19,41,127,46,23,16,045,34*79
15:05:30.452 -> $GPGSV,3,3,10,25,26,308,28,29,02,309,*79
15:05:30.486 -> $GLGSV,3,1,10,68,40,044,48,69,60,129,48,70,16,183,21,74,10,241,09*6A
15:05:30.586 -> $GLGSV,3,2,10,75,21,295,39,76,10,343,31,83,23,099,34,84,67,030,42*63
15:05:30.652 -> $GLGSV,3,3,10,85,30,309,26,,,,46*56
15:05:30.685 -> $GNGLL,4531.86618,N,07336.79261,W,190532.00,A,A*61
15:05:31.018 -> $GNRMC,190533.00,A,4531.86617,N,07336.79261,W,0.037,,220719,,,A*7D
15:05:31.084 -> $GNVTG,,T,,M,0.037,N,0.069,K,A*36
15:05:31.117 -> $GNGGA,190533.00,4531.86617,N,07336.79261,W,1,12,0.81,61.9,M,-32.7,M,,*45
15:05:31.184 -> $GNGSA,A,3,02,12,19,17,05,09,06,23,,,,,1.48,0.81,1.24*1B
15:05:31.250 -> $GNGSA,A,3,84,69,68,85,83,75,76,,,,,,1.48,0.81,1.24*17
15:05:31.317 -> $GPGSV,3,1,10,02,66,296,49,05,33,211,49,06,59,060,49,09,29,084,46*7F
15:05:31.383 -> $GPGSV,3,2,10,12,44,262,39,17,26,130,38,19,41,127,48,23,16,045,34*78
15:05:31.450 -> $GPGSV,3,3,10,25,26,308,,29,02,309,*73
15:05:31.483 -> $GLGSV,3,1,10,68,40,044,48,69,60,129,48,70,16,183,20,74,10,241,11*62
15:05:31.549 -> $GLGSV,3,2,10,75,21,295,39,76,10,343,30,83,23,099,34,84,67,030,42*62
15:05:31.649 -> $GLGSV,3,3,10,85,30,309,27,,,,46*57
15:05:31.682 -> $GNGLL,4531.86617,N,07336.79261,W,190533.00,A,A*6F
15:05:32.015 -> $GNRMC,190534.00,A,4531.86617,N,07336.79261,W,0.016,,220719,,,A*79
15:05:32.081 -> $GNVTG,,T,,M,0.016,N,0.030,K,A*39
15:05:32.114 -> $GNGGA,190534.00,4531.86617,N,07336.79261,W,1,12,0.88,61.9,M,-32.7,M,,*4B
15:05:32.181 -> $GNGSA,A,3,02,12,19,17,05,09,06,23,,,,,1.70,0.88,1.45*1E
15:05:32.247 -> $GNGSA,A,3,84,69,68,85,83,75,76,,,,,,1.70,0.88,1.45*12
15:05:32.314 -> $GPGSV,3,1,10,02,66,296,48,05,33,211,49,06,59,060,48,09,29,084,46*7F
15:05:32.380 -> $GPGSV,3,2,10,12,44,262,36,17,26,130,38,19,41,127,48,23,16,045,36*75
15:05:32.447 -> $GPGSV,3,3,10,25,26,308,30,29,02,309,*70
15:05:32.480 -> $GLGSV,3,1,10,68,40,044,48,69,60,129,49,70,16,183,20,74,10,241,11*63
15:05:32.580 -> $GLGSV,3,2,10,75,21,295,39,76,10,343,30,83,23,099,37,84,67,030,42*61
15:05:32.646 -> $GLGSV,3,3,10,85,30,309,30,,,,47*50
15:05:32.679 -> $GNGLL,4531.86617,N,07336.79261,W,190534.00,A,A*68
15:05:33.012 -> $GNRMC,190535.00,A,4531.86616,N,07336.79260,W,0.036,,220719,,,A*7A
15:05:33.078 -> $GNVTG,,T,,M,0.036,N,0.066,K,A*38
15:05:33.111 -> $GNGGA,190535.00,4531.86616,N,07336.79260,W,1,12,0.81,61.8,M,-32.7,M,,*42
15:05:33.178 -> $GNGSA,A,3,02,12,19,17,05,09,06,23,,,,,1.48,0.81,1.24*1B
15:05:33.244 -> $GNGSA,A,3,84,69,68,85,83,75,76,,,,,,1.48,0.81,1.24*17
15:05:33.311 -> $GPGSV,3,1,10,02,66,296,48,05,33,211,49,06,59,060,48,09,29,084,47*7E
15:05:33.377 -> $GPGSV,3,2,10,12,44,262,34,17,26,130,38,19,41,127,48,23,16,045,36*77
15:05:33.443 -> $GPGSV,3,3,10,25,26,308,29,29,02,309,*78
15:05:33.477 -> $GLGSV,3,1,10,68,40,044,48,69,60,129,49,70,16,183,19,74,10,241,11*69
15:05:33.576 -> $GLGSV,3,2,10,75,21,295,40,76,10,343,29,83,23,099,37,84,67,030,42*67
15:05:33.643 -> $GLGSV,3,3,10,85,30,309,31,,,,47*51
15:05:33.676 -> $GNGLL,4531.86616,N,07336.79260,W,190535.00,A,A*69
15:05:34.008 -> $GNRMC,190536.00,A,4531.86618,N,07336.79262,W,0.021,,220719,,,A*73
15:05:34.075 -> $GNVTG,,T,,M,0.021,N,0.040,K,A*3A
15:05:34.108 -> $GNGGA,190536.00,4531.86618,N,07336.79262,W,1,12,0.84,61.7,M,-32.7,M,,*47
15:05:34.174 -> $GNGSA,A,3,02,12,19,17,05,09,06,23,,,,,1.50,0.84,1.24*17
15:05:34.241 -> $GNGSA,A,3,84,69,68,85,83,75,76,,,,,,1.50,0.84,1.24*1B
15:05:34.307 -> $GPGSV,3,1,10,02,66,296,48,05,34,211,50,06,59,060,48,09,29,084,46*70
15:05:34.374 -> $GPGSV,3,2,10,12,44,262,32,17,26,130,39,19,41,127,48,23,16,045,40*71
15:05:34.440 -> $GPGSV,3,3,10,25,26,308,31,29,02,309,*71
15:05:34.473 -> $GLGSV,3,1,10,68,40,044,48,69,60,129,49,70,16,183,19,74,10,241,11*69
15:05:34.573 -> $GLGSV,3,2,10,75,21,295,40,76,10,343,27,83,23,099,37,84,67,030,42*69
15:05:34.639 -> $GLGSV,3,3,10,85,30,309,33,,,,46*52
15:05:34.673 -> $GNGLL,4531.86618,N,07336.79262,W,190536.00,A,A*66
15:05:35.005 -> $GNRMC,190537.00,A,4531.86618,N,07336.79263,W,0.022,,220719,,,A*70
15:05:35.072 -> $GNVTG,,T,,M,0.022,N,0.040,K,A*39
15:05:35.105 -> $GNGGA,190537.00,4531.86618,N,07336.79263,W,1,12,0.77,61.6,M,-32.7,M,,*4A
15:05:35.171 -> $GNGSA,A,3,02,12,19,17,05,09,06,23,,,,,1.45,0.77,1.23*18
15:05:35.238 -> $GNGSA,A,3,84,69,68,85,83,75,76,,,,,,1.45,0.77,1.23*14
15:05:35.304 -> $GPGSV,3,1,10,02,66,296,48,05,34,211,50,06,59,060,48,09,29,084,47*71
15:05:35.370 -> $GPGSV,3,2,10,12,44,262,31,17,26,130,39,19,41,127,49,23,16,045,41*72
15:05:35.437 -> $GPGSV,3,3,10,25,26,308,32,29,02,309,*72
15:05:35.470 -> $GLGSV,3,1,10,68,40,044,48,69,60,129,49,70,16,183,19,74,10,241,14*6C
15:05:35.570 -> $GLGSV,3,2,10,75,21,295,40,76,10,343,27,83,23,099,37,84,67,030,42*69
15:05:35.636 -> $GLGSV,3,3,10,85,30,309,34,,,,47*54
15:05:35.670 -> $GNGLL,4531.86618,N,07336.79263,W,190537.00,A,A*66
15:05:36.002 -> $GNRMC,190538.00,A,4531.86617,N,07336.79263,W,0.067,,220719,,,A*71
15:05:36.069 -> $GNVTG,,T,,M,0.067,N,0.125,K,A*3A
15:05:36.102 -> $GNGGA,190538.00,4531.86617,N,07336.79263,W,1,12,0.84,61.6,M,-32.7,M,,*46
15:05:36.168 -> $GNGSA,A,3,02,12,19,17,05,09,06,23,,,,,1.67,0.84,1.44*15
15:05:36.235 -> $GNGSA,A,3,84,69,68,85,83,75,76,,,,,,1.67,0.84,1.44*19
15:05:36.301 -> $GPGSV,3,1,10,02,66,296,47,05,34,211,50,06,59,060,48,09,29,084,47*7E
15:05:36.368 -> $GPGSV,3,2,10,12,44,262,31,17,26,130,38,19,41,127,48,23,16,045,37*73
15:05:36.434 -> $GPGSV,3,3,10,25,26,308,32,29,02,309,*72
15:05:36.467 -> $GLGSV,3,1,10,68,40,044,48,69,60,129,49,70,16,183,19,74,10,241,15*6D
15:05:36.567 -> $GLGSV,3,2,10,75,21,295,40,76,10,343,25,83,23,099,38,84,67,030,42*64
15:05:36.634 -> $GLGSV,3,3,10,85,30,309,34,,,,47*54
15:05:36.667 -> $GNGLL,4531.86617,N,07336.79263,W,190538.00,A,A*66
15:05:36.999 -> $GNRMC,190539.00,A,4531.86617,N,07336.79264,W,0.061,,220719,,,A*71
15:05:37.066 -> $GNVTG,,T,,M,0.061,N,0.114,K,A*3E
15:05:37.099 -> $GNGGA,190539.00,4531.86617,N,07336.79264,W,1,12,0.84,61.5,M,-32.7,M,,*43
15:05:37.165 -> $GNGSA,A,3,02,12,19,17,05,09,06,23,,,,,1.67,0.84,1.44*15
15:05:37.232 -> $GNGSA,A,3,84,69,68,85,83,75,76,,,,,,1.67,0.84,1.44*19
15:05:37.298 -> $GPGSV,3,1,10,02,66,296,47,05,34,211,49,06,59,060,49,09,29,084,47*77
15:05:37.365 -> $GPGSV,3,2,10,12,44,262,33,17,26,130,39,19,41,127,48,23,16,045,34*73
15:05:37.431 -> $GPGSV,3,3,10,25,26,308,26,29,02,309,*77
15:05:37.464 -> $GLGSV,3,1,09,68,40,044,47,69,60,129,49,70,16,183,17,74,10,241,12*63
15:05:37.564 -> $GLGSV,3,2,09,75,21,295,40,76,10,343,24,83,23,099,37,84,67,030,43*63
15:05:37.631 -> $GLGSV,3,3,09,85,30,309,34*5F
15:05:37.664 -> $GNGLL,4531.86617,N,07336.79264,W,190539.00,A,A*60
15:05:37.996 -> $GNRMC,190540.00,A,4531.86617,N,07336.79267,W,0.039,,220719,,,A*71
15:05:38.063 -> $GNVTG,,T,,M,0.039,N,0.072,K,A*32
15:05:38.096 -> $GNGGA,190540.00,4531.86617,N,07336.79267,W,1,12,0.90,61.5,M,-32.7,M,,*4B
15:05:38.195 -> $GNGSA,A,3,02,12,19,17,05,09,06,23,,,,,1.75,0.90,1.50*16
15:05:38.262 -> $GNGSA,A,3,84,69,68,85,83,75,76,,,,,,1.75,0.90,1.50*1A
15:05:38.328 -> $GPGSV,3,1,10,02,66,296,47,05,34,211,49,06,59,060,50,09,29,084,47*7F
15:05:38.395 -> $GPGSV,3,2,10,12,44,262,33,17,26,130,38,19,41,127,48,23,16,045,34*72
15:05:38.461 -> $GPGSV,3,3,10,25,26,308,25,29,02,309,31*76
15:05:38.494 -> $GLGSV,3,1,10,68,40,044,48,69,60,129,49,70,16,183,14,74,10,241,10*65
15:05:38.594 -> $GLGSV,3,2,10,75,21,295,41,76,10,343,25,83,23,099,38,84,67,030,44*63
15:05:38.660 -> $GLGSV,3,3,10,85,30,309,34,,,,48*5B
15:05:38.694 -> $GNGLL,4531.86617,N,07336.79267,W,190540.00,A,A*6D
15:05:39.026 -> $GNRMC,190541.00,A,4531.86618,N,07336.79270,W,0.010,,220719,,,A*72
15:05:39.093 -> $GNVTG,,T,,M,0.010,N,0.019,K,A*34
15:05:39.126 -> $GNGGA,190541.00,4531.86618,N,07336.79270,W,1,12,0.84,61.5,M,-32.7,M,,*46
15:05:39.192 -> $GNGSA,A,3,02,12,19,17,05,09,06,23,,,,,1.67,0.84,1.44*15
15:05:39.259 -> $GNGSA,A,3,84,69,68,85,83,75,76,,,,,,1.67,0.84,1.44*19
15:05:39.325 -> $GPGSV,3,1,10,02,66,296,47,05,34,211,49,06,59,060,50,09,29,084,47*7F
15:05:39.392 -> $GPGSV,3,2,10,12,44,262,32,17,26,130,37,19,41,127,48,23,16,045,34*7C
15:05:39.458 -> $GPGSV,3,3,10,25,26,308,25,29,02,309,30*77
15:05:39.491 -> $GLGSV,3,1,10,68,40,044,48,69,60,129,49,70,16,183,14,74,10,241,18*6D
15:05:39.591 -> $GLGSV,3,2,10,75,21,295,41,76,10,343,25,83,23,099,38,84,67,030,45*62
15:05:39.657 -> $GLGSV,3,3,10,85,30,309,32,,,,49*5C
15:05:39.691 -> $GNGLL,4531.86618,N,07336.79270,W,190541.00,A,A*65
15:05:40.023 -> $GNRMC,190542.00,A,4531.86618,N,07336.79279,W,0.184,,220719,,,A*74
15:05:40.090 -> $GNVTG,,T,,M,0.184,N,0.341,K,A*36
15:05:40.123 -> $GNGGA,190542.00,4531.86618,N,07336.79279,W,1,12,0.88,61.4,M,-32.7,M,,*41
15:05:40.189 -> $GNGSA,A,3,02,12,19,17,05,09,06,23,,,,,1.70,0.88,1.45*1E
15:05:40.256 -> $GNGSA,A,3,84,69,68,85,83,75,76,,,,,,1.70,0.88,1.45*12
15:05:40.322 -> $GPGSV,3,1,10,02,66,296,47,05,34,211,47,06,59,060,48,09,29,084,47*78
15:05:40.389 -> $GPGSV,3,2,10,12,44,262,38,17,26,130,38,19,41,127,47,23,16,045,40*75
15:05:40.455 -> $GPGSV,3,3,10,25,26,308,25,29,02,309,29*7F
15:05:40.489 -> $GLGSV,3,1,10,68,40,044,48,69,60,129,47,70,16,183,16,74,10,241,22*68
15:05:40.588 -> $GLGSV,3,2,10,75,21,295,41,76,10,343,25,83,23,099,36,84,67,030,46*6F
15:05:40.655 -> $GLGSV,3,3,10,85,30,309,32,,,,51*55
15:05:40.688 -> $GNGLL,4531.86618,N,07336.79279,W,190542.00,A,A*6F
15:05:41.020 -> $GNRMC,190543.00,A,4531.86615,N,07336.79281,W,0.072,,220719,,,A*77
15:05:41.087 -> $GNVTG,,T,,M,0.072,N,0.133,K,A*39
15:05:41.120 -> $GNGGA,190543.00,4531.86615,N,07336.79281,W,1,12,0.77,61.5,M,-32.7,M,,*4B
15:05:41.187 -> $GNGSA,A,3,02,12,19,17,05,09,06,23,,,,,1.45,0.77,1.23*18
15:05:41.253 -> $GNGSA,A,3,84,69,68,85,83,75,76,,,,,,1.45,0.77,1.23*14
15:05:41.320 -> $GPGSV,3,1,10,02,66,296,47,05,34,211,47,06,59,060,48,09,29,084,43*7C
15:05:41.386 -> $GPGSV,3,2,10,12,44,262,35,17,26,130,37,19,41,127,47,23,16,045,43*74
15:05:41.452 -> $GPGSV,3,3,10,25,26,308,26,29,02,309,26*73
15:05:41.486 -> $GLGSV,3,1,10,68,40,044,51,69,60,129,51,70,16,183,20,74,10,241,21*61
15:05:41.585 -> $GLGSV,3,2,10,75,21,295,45,76,10,343,28,83,23,099,30,84,67,030,46*60
15:05:41.652 -> $GLGSV,3,3,10,85,30,309,27,,,,52*52
15:05:41.685 -> $GNGLL,4531.86615,N,07336.79281,W,190543.00,A,A*64
15:05:42.018 -> $GNRMC,190544.00,A,4531.86614,N,07336.79279,W,0.035,,220719,,,A*75
15:05:42.084 -> $GNVTG,,T,,M,0.035,N,0.065,K,A*38
15:05:42.117 -> $GNGGA,190544.00,4531.86614,N,07336.79279,W,1,12,0.73,61.5,M,-32.7,M,,*4E
15:05:42.184 -> $GNGSA,A,3,02,12,19,17,05,09,06,23,,,,,1.38,0.73,1.18*1E
15:05:42.250 -> $GNGSA,A,3,84,69,68,85,83,75,76,,,,,,1.38,0.73,1.18*12
15:05:42.317 -> $GPGSV,3,1,10,02,66,296,47,05,34,211,47,06,59,060,49,09,29,084,46*78
15:05:42.383 -> $GPGSV,3,2,10,12,44,262,40,17,26,130,37,19,41,127,47,23,16,045,44*71
15:05:42.449 -> $GPGSV,3,3,10,25,26,308,33,29,02,309,25*74
15:05:42.483 -> $GLGSV,3,1,10,68,40,044,50,69,60,129,50,70,16,183,24,74,10,241,18*6F
15:05:42.582 -> $GLGSV,3,2,10,75,21,295,43,76,10,343,28,83,23,099,37,84,67,030,47*60
15:05:42.649 -> $GLGSV,3,3,10,85,30,309,27,,,,53*53
15:05:42.682 -> $GNGLL,4531.86614,N,07336.79279,W,190544.00,A,A*65
15:05:43.014 -> $GNRMC,190545.00,A,4531.86612,N,07336.79282,W,0.033,,220719,,,A*70
15:05:43.081 -> $GNVTG,,T,,M,0.033,N,0.061,K,A*3A
15:05:43.114 -> $GNGGA,190545.00,4531.86612,N,07336.79282,W,1,12,0.76,61.5,M,-32.7,M,,*48
15:05:43.181 -> $GNGSA,A,3,02,12,19,17,05,09,06,23,,,,,1.41,0.76,1.18*15
15:05:43.247 -> $GNGSA,A,3,84,69,68,85,83,75,76,,,,,,1.41,0.76,1.18*19
15:05:43.314 -> $GPGSV,3,1,10,02,66,296,47,05,34,211,45,06,59,060,48,09,29,084,47*7A
15:05:43.380 -> $GPGSV,3,2,10,12,44,262,40,17,26,130,37,19,41,127,45,23,16,045,41*76
15:05:43.446 -> $GPGSV,3,3,10,25,26,308,32,29,02,309,26*76
15:05:43.480 -> $GLGSV,3,1,10,68,40,044,50,69,60,129,50,70,16,183,25,74,10,241,17*61
15:05:43.579 -> $GLGSV,3,2,10,75,21,295,43,76,10,343,27,83,23,099,38,84,67,030,47*60
15:05:43.646 -> $GLGSV,3,3,10,85,30,309,29,,,,53*5D
15:05:43.679 -> $GNGLL,4531.86612,N,07336.79282,W,190545.00,A,A*66
15:05:44.011 -> $GNRMC,190546.00,A,4531.86609,N,07336.79286,W,0.054,,220719,,,A*7C
15:05:44.078 -> $GNVTG,,T,,M,0.054,N,0.100,K,A*3D
15:05:44.111 -> $GNGGA,190546.00,4531.86609,N,07336.79286,W,1,12,0.77,61.6,M,-32.7,M,,*47
15:05:44.177 -> $GNGSA,A,3,02,12,19,17,05,09,06,23,,,,,1.50,0.77,1.29*16
15:05:44.244 -> $GNGSA,A,3,84,69,68,85,83,75,76,,,,,,1.50,0.77,1.29*1A
15:05:44.310 -> $GPGSV,3,1,10,02,66,296,46,05,34,211,45,06,59,060,46,09,29,084,45*77
15:05:44.377 -> $GPGSV,3,2,10,12,44,262,38,17,26,130,38,19,41,127,45,23,16,045,42*75
15:05:44.443 -> $GPGSV,3,3,10,25,26,308,32,29,02,309,27*77
15:05:44.477 -> $GLGSV,3,1,10,68,40,044,50,69,60,129,50,70,16,183,25,74,10,241,16*60
15:05:44.576 -> $GLGSV,3,2,10,75,21,295,44,76,10,343,25,83,23,099,35,84,67,030,46*69
15:05:44.643 -> $GLGSV,3,3,10,85,30,309,29,,,,52*5C
15:05:44.676 -> $GNGLL,4531.86609,N,07336.79286,W,190546.00,A,A*6B
15:05:45.008 -> $GNRMC,190547.00,A,4531.86610,N,07336.79284,W,0.082,,220719,,,A*7C
15:05:45.075 -> $GNVTG,,T,,M,0.082,N,0.151,K,A*32
15:05:45.108 -> $GNGGA,190547.00,4531.86610,N,07336.79284,W,1,12,0.81,61.7,M,-32.7,M,,*44
15:05:45.175 -> $GNGSA,A,3,02,12,19,17,05,09,06,23,,,,,1.55,0.81,1.31*13
15:05:45.241 -> $GNGSA,A,3,84,69,68,85,83,75,76,,,,,,1.55,0.81,1.31*1F
15:05:45.308 -> $GPGSV,3,1,10,02,66,296,47,05,34,211,48,06,59,060,48,09,29,084,45*75
15:05:45.374 -> $GPGSV,3,2,10,12,44,262,37,17,26,130,38,19,41,127,47,23,16,045,45*7F
15:05:45.441 -> $GPGSV,3,3,10,25,26,308,20,29,02,309,24*77
15:05:45.474 -> $GLGSV,3,1,10,68,40,044,49,69,60,129,50,70,16,183,25,74,10,241,17*69
15:05:45.574 -> $GLGSV,3,2,10,75,21,295,44,76,10,343,34,83,23,099,25,84,67,030,45*6B
15:05:45.640 -> $GLGSV,3,3,10,85,30,309,29,,,,51*5F
15:05:45.673 -> $GNGLL,4531.86610,N,07336.79284,W,190547.00,A,A*60
15:05:46.006 -> $GNRMC,190548.00,A,4531.86611,N,07336.79273,W,0.111,,220719,,,A*71
15:05:46.072 -> $GNVTG,,T,,M,0.111,N,0.206,K,A*38
15:05:46.105 -> $GNGGA,190548.00,4531.86611,N,07336.79273,W,1,12,0.81,61.8,M,-32.7,M,,*4D
15:05:46.172 -> $GNGSA,A,3,02,12,19,17,05,09,06,23,,,,,1.55,0.81,1.31*13
15:05:46.238 -> $GNGSA,A,3,84,69,68,85,83,75,76,,,,,,1.55,0.81,1.31*1F
15:05:46.305 -> $GPGSV,3,1,10,02,66,296,47,05,34,211,46,06,59,060,48,09,29,084,44*7A
15:05:46.371 -> $GPGSV,3,2,10,12,44,262,40,17,26,130,40,19,41,127,46,23,16,045,46*72
15:05:46.438 -> $GPGSV,3,3,10,25,26,308,29,29,02,309,22*78
15:05:46.471 -> $GLGSV,3,1,10,68,40,044,49,69,60,129,48,70,16,183,24,74,10,241,16*60
15:05:46.571 -> $GLGSV,3,2,10,75,21,295,43,76,10,343,29,83,23,099,31,84,67,030,45*65
15:05:46.637 -> $GLGSV,3,3,10,85,30,309,19,,,,51*5C
15:05:46.670 -> $GNGLL,4531.86611,N,07336.79273,W,190548.00,A,A*66
15:05:47.003 -> $GNRMC,190549.00,A,4531.86609,N,07336.79267,W,0.022,,220719,,,A*7D
15:05:47.069 -> $GNVTG,,T,,M,0.022,N,0.041,K,A*38
15:05:47.102 -> $GNGGA,190549.00,4531.86609,N,07336.79267,W,1,12,0.77,61.9,M,-32.7,M,,*48
15:05:47.169 -> $GNGSA,A,3,02,12,19,17,05,09,06,23,,,,,1.50,0.77,1.29*16
15:05:47.235 -> $GNGSA,A,3,84,69,68,85,83,75,76,,,,,,1.50,0.77,1.29*1A
15:05:47.302 -> $GPGSV,3,1,10,02,66,296,47,05,34,211,43,06,59,060,49,09,29,084,46*7C
15:05:47.368 -> $GPGSV,3,2,10,12,44,262,42,17,26,130,41,19,41,127,46,23,16,045,34*74
15:05:47.435 -> $GPGSV,3,3,10,25,26,308,28,29,02,309,21*7A
15:05:47.468 -> $GLGSV,3,1,10,68,40,044,49,69,60,129,49,70,16,183,26,74,10,241,19*6C
15:05:47.568 -> $GLGSV,3,2,10,75,21,295,41,76,10,343,26,83,23,099,35,84,67,030,44*6D
15:05:47.634 -> $GLGSV,3,3,10,85,30,309,25,,,,51*53
15:05:47.667 -> $GNGLL,4531.86609,N,07336.79267,W,190549.00,A,A*6B
15:05:48.000 -> $GNRMC,190550.00,A,4531.86607,N,07336.79272,W,0.028,,220719,,,A*75
15:05:48.066 -> $GNVTG,,T,,M,0.028,N,0.052,K,A*30
15:05:48.099 -> $GNGGA,190550.00,4531.86607,N,07336.79272,W,1,12,0.80,62.0,M,-32.7,M,,*48
15:05:48.166 -> $GNGSA,A,3,02,12,19,17,05,09,06,23,,,,,1.52,0.80,1.29*1C
15:05:48.232 -> $GNGSA,A,3,84,69,68,85,83,75,76,,,,,,1.52,0.80,1.29*10
15:05:48.299 -> $GPGSV,3,1,10,02,66,296,47,05,34,211,44,06,59,060,50,09,29,084,46*73
15:05:48.365 -> $GPGSV,3,2,10,12,44,262,42,17,26,130,41,19,41,128,47,23,16,045,40*79
15:05:48.432 -> $GPGSV,3,3,10,25,26,308,27,29,02,309,23*77
15:05:48.465 -> $GLGSV,3,1,10,68,40,044,49,69,60,129,46,70,16,183,27,74,10,241,21*69
15:05:48.565 -> $GLGSV,3,2,10,75,21,295,41,76,10,343,24,83,23,099,34,84,67,030,46*6C
15:05:48.631 -> $GLGSV,3,3,10,85,30,309,27,,,,52*52
15:05:48.664 -> $GNGLL,4531.86607,N,07336.79272,W,190550.00,A,A*69
15:05:48.997 -> $GNRMC,190551.00,A,4531.86601,N,07336.79276,W,0.092,,220719,,,A*77
15:05:49.063 -> $GNVTG,,T,,M,0.092,N,0.171,K,A*31
15:05:49.130 -> $GNGGA,190551.00,4531.86601,N,07336.79276,W,1,12,0.73,62.1,M,-32.7,M,,*46
15:05:49.196 -> $GNGSA,A,3,02,12,19,17,05,09,06,23,,,,,1.38,0.73,1.18*1E
15:05:49.229 -> $GNGSA,A,3,84,69,68,85,83,75,76,,,,,,1.38,0.73,1.18*12
15:05:49.329 -> $GPGSV,3,1,10,02,66,296,48,05,34,211,44,06,59,060,48,09,29,084,46*75
15:05:49.395 -> $GPGSV,3,2,10,12,44,262,42,17,26,130,39,19,41,128,46,23,16,045,43*74
15:05:49.462 -> $GPGSV,3,3,10,25,26,308,28,29,02,309,23*78
15:05:49.495 -> $GLGSV,3,1,10,68,40,044,49,69,60,129,48,70,16,183,27,74,10,241,23*65
15:05:49.595 -> $GLGSV,3,2,10,75,21,295,41,76,10,343,26,83,23,099,34,84,67,030,45*6D
15:05:49.661 -> $GLGSV,3,3,10,85,30,309,30,,,,51*57
15:05:49.694 -> $GNGLL,4531.86601,N,07336.79276,W,190551.00,A,A*6A
15:05:50.027 -> $GNRMC,190552.00,A,4531.86597,N,07336.79281,W,0.041,,220719,,,A*7E
15:05:50.093 -> $GNVTG,,T,,M,0.041,N,0.076,K,A*39
15:05:50.127 -> $GNGGA,190552.00,4531.86597,N,07336.79281,W,1,12,0.77,62.1,M,-32.7,M,,*45
15:05:50.193 -> $GNGSA,A,3,02,12,19,17,05,09,06,23,,,,,1.50,0.77,1.29*16
15:05:50.259 -> $GNGSA,A,3,84,69,68,85,83,75,76,,,,,,1.50,0.77,1.29*1A
15:05:50.326 -> $GPGSV,3,1,10,02,66,296,47,05,34,211,46,06,59,060,48,09,29,084,45*7B
15:05:50.392 -> $GPGSV,3,2,10,12,44,262,41,17,26,130,38,19,41,128,46,23,16,045,44*71
15:05:50.459 -> $GPGSV,3,3,10,25,26,308,31,29,02,309,23*70
15:05:50.492 -> $GLGSV,3,1,10,68,40,044,48,69,60,129,48,70,16,183,27,74,10,241,21*66
15:05:50.592 -> $GLGSV,3,2,10,75,21,295,41,76,10,343,26,83,23,099,33,84,67,030,45*6A
15:05:50.658 -> $GLGSV,3,3,10,85,30,309,30,,,,51*57
15:05:50.692 -> $GNGLL,4531.86597,N,07336.79281,W,190552.00,A,A*6D
15:05:51.024 -> $GNRMC,190553.00,A,4531.86592,N,07336.79284,W,0.026,,220719,,,A*7E
15:05:51.091 -> $GNVTG,,T,,M,0.026,N,0.048,K,A*35
15:05:51.124 -> $GNGGA,190553.00,4531.86592,N,07336.79284,W,1,12,0.73,62.1,M,-32.7,M,,*40
15:05:51.190 -> $GNGSA,A,3,02,12,19,17,05,09,06,23,,,,,1.38,0.73,1.18*1E
15:05:51.257 -> $GNGSA,A,3,84,69,68,85,83,75,76,,,,,,1.38,0.73,1.18*12
15:05:51.323 -> $GPGSV,3,1,10,02,66,296,47,05,34,211,45,06,59,060,48,09,29,084,45*78
15:05:51.390 -> $GPGSV,3,2,10,12,44,262,41,17,26,130,38,19,41,128,46,23,16,045,42*77
15:05:51.456 -> $GPGSV,3,3,10,25,26,308,31,29,02,309,22*71
15:05:51.489 -> $GLGSV,3,1,10,68,40,044,49,69,60,129,48,70,16,183,27,74,10,241,19*6C
15:05:51.589 -> $GLGSV,3,2,10,75,21,295,42,76,10,343,32,83,23,099,34,84,67,030,45*6B
15:05:51.655 -> $GLGSV,3,3,10,85,30,309,32,,,,52*56
15:05:51.689 -> $GNGLL,4531.86592,N,07336.79284,W,190553.00,A,A*6C
15:05:52.021 -> $GNRMC,190554.00,A,4531.86588,N,07336.79288,W,0.010,,220719,,,A*7B
15:05:52.088 -> $GNVTG,,T,,M,0.010,N,0.019,K,A*34
15:05:52.121 -> $GNGGA,190554.00,4531.86588,N,07336.79288,W,1,12,0.77,62.2,M,-32.7,M,,*47
15:05:52.187 -> $GNGSA,A,3,02,12,19,17,05,09,06,23,,,,,1.50,0.77,1.29*16
15:05:52.254 -> $GNGSA,A,3,84,69,68,85,83,75,76,,,,,,1.50,0.77,1.29*1A
15:05:52.320 -> $GPGSV,3,1,10,02,66,296,47,05,34,211,45,06,59,060,48,09,29,084,45*78
15:05:52.386 -> $GPGSV,3,2,10,12,44,262,41,17,26,130,38,19,41,128,46,23,16,045,41*74
15:05:52.453 -> $GPGSV,3,3,10,25,26,308,31,29,02,309,20*73
15:05:52.486 -> $GLGSV,3,1,10,68,40,044,49,69,60,129,48,70,16,183,28,74,10,241,19*63
15:05:52.585 -> $GLGSV,3,2,10,75,21,295,42,76,10,343,32,83,23,099,34,84,67,030,46*68
15:05:52.651 -> $GLGSV,3,3,10,85,30,309,32,,,,52*56
15:05:52.685 -> $GNGLL,4531.86588,N,07336.79288,W,190554.00,A,A*6C
15:05:53.017 -> $GNRMC,190555.00,A,4531.86584,N,07336.79290,W,0.077,,220719,,,A*7E
15:05:53.083 -> $GNVTG,,T,,M,0.077,N,0.143,K,A*3B
15:05:53.117 -> $GNGGA,190555.00,4531.86584,N,07336.79290,W,1,12,0.75,62.1,M,-32.7,M,,*42
15:05:53.183 -> $GNGSA,A,3,02,12,19,17,05,09,06,23,,,,,1.40,0.75,1.18*17
15:05:53.250 -> $GNGSA,A,3,84,69,68,85,83,75,76,,,,,,1.40,0.75,1.18*1B
15:05:53.316 -> $GPGSV,3,1,10,02,66,296,47,05,34,211,45,06,59,060,48,09,29,084,47*7A
15:05:53.382 -> $GPGSV,3,2,10,12,44,262,41,17,26,130,37,19,41,128,46,23,16,045,29*75
15:05:53.449 -> $GPGSV,3,3,10,25,26,308,30,29,02,309,20*72
15:05:53.482 -> $GLGSV,3,1,10,68,40,044,48,69,60,129,48,70,16,183,28,74,10,241,19*62
15:05:53.582 -> $GLGSV,3,2,10,75,21,295,41,76,10,343,36,83,23,099,33,84,67,030,46*68
15:05:53.648 -> $GLGSV,3,3,10,85,30,309,34,,,,52*50
15:05:53.682 -> $GNGLL,4531.86584,N,07336.79290,W,190555.00,A,A*68
15:05:54.014 -> $GNRMC,190556.00,A,4531.86583,N,07336.79293,W,0.039,,220719,,,A*73
15:05:54.080 -> $GNVTG,,T,,M,0.039,N,0.072,K,A*32
15:05:54.114 -> $GNGGA,190556.00,4531.86583,N,07336.79293,W,1,12,0.77,62.1,M,-32.7,M,,*47
15:05:54.180 -> $GNGSA,A,3,02,12,19,17,05,09,06,23,,,,,1.45,0.77,1.23*18
15:05:54.246 -> $GNGSA,A,3,84,69,68,85,83,75,76,,,,,,1.45,0.77,1.23*14
15:05:54.313 -> $GPGSV,3,1,10,02,66,296,47,05,34,211,46,06,59,060,49,09,29,084,47*78
15:05:54.379 -> $GPGSV,3,2,10,12,44,262,34,17,26,130,39,19,41,128,46,23,16,045,44*72
15:05:54.445 -> $GPGSV,3,3,10,25,26,307,28,29,02,309,21*75
15:05:54.479 -> $GLGSV,3,1,10,68,40,044,49,69,60,129,49,70,16,183,27,74,10,241,20*67
15:05:54.578 -> $GLGSV,3,2,10,75,21,295,43,76,10,343,35,83,23,099,36,84,67,030,47*6D
15:05:54.645 -> $GLGSV,3,3,10,85,30,309,35,,,,51*52
15:05:54.678 -> $GNGLL,4531.86583,N,07336.79293,W,190556.00,A,A*6F
15:05:55.010 -> $GNRMC,190557.00,A,4531.86581,N,07336.79297,W,0.021,,220719,,,A*7D
15:05:55.077 -> $GNVTG,,T,,M,0.021,N,0.039,K,A*34
15:05:55.110 -> $GNGGA,190557.00,4531.86581,N,07336.79297,W,1,12,0.88,62.1,M,-32.7,M,,*40
15:05:55.177 -> $GNGSA,A,3,02,12,19,17,05,09,06,23,,,,,1.70,0.88,1.45*1E
15:05:55.243 -> $GNGSA,A,3,84,69,68,85,83,75,76,,,,,,1.70,0.88,1.45*12
15:05:55.310 -> $GPGSV,3,1,10,02,66,296,47,05,34,211,45,06,59,060,48,09,29,084,47*7A
15:05:55.376 -> $GPGSV,3,2,10,12,44,262,37,17,26,130,38,19,41,128,46,23,16,045,36*75
15:05:55.443 -> $GPGSV,3,3,10,25,26,307,27,29,02,309,20*7B
15:05:55.476 -> $GLGSV,3,1,10,68,40,044,48,69,60,129,49,70,16,183,27,74,10,241,21*67
15:05:55.575 -> $GLGSV,3,2,10,75,21,295,43,76,10,343,37,83,23,099,35,84,67,030,47*6C
15:05:55.641 -> $GLGSV,3,3,10,85,30,309,36,,,,51*51
15:05:55.674 -> $GNGLL,4531.86581,N,07336.79297,W,190557.00,A,A*68
15:05:56.005 -> $GNRMC,190558.00,A,4531.86582,N,07336.79304,W,0.250,,220719,,,A*7E
15:05:56.072 -> $GNVTG,,T,,M,0.250,N,0.463,K,A*3B
15:05:56.105 -> $GNGGA,190558.00,4531.86582,N,07336.79304,W,1,12,0.79,62.2,M,-32.7,M,,*4A
15:05:56.171 -> $GNGSA,A,3,02,12,19,17,05,09,06,23,,,,,1.47,0.79,1.24*13
15:05:56.238 -> $GNGSA,A,3,84,69,68,85,83,75,76,,,,,,1.47,0.79,1.24*1F
15:05:56.304 -> $GPGSV,3,1,10,02,66,296,47,05,34,211,43,06,59,060,45,09,29,084,47*71
15:05:56.371 -> $GPGSV,3,2,10,12,44,262,34,17,26,130,31,19,41,128,44,23,16,045,45*79
15:05:56.437 -> $GPGSV,3,3,10,25,26,307,29,29,02,309,20*75
15:05:56.471 -> $GLGSV,3,1,10,68,40,044,46,69,60,129,49,70,16,183,26,74,10,241,19*63
15:05:56.570 -> $GLGSV,3,2,10,75,21,295,45,76,10,343,31,83,23,099,37,84,67,030,43*6A
15:05:56.637 -> $GLGSV,3,3,10,85,30,309,23,,,,49*5C
15:05:56.670 -> $GNGLL,4531.86582,N,07336.79304,W,190558.00,A,A*6F
15:05:57.002 -> $GNRMC,190559.00,A,4531.86583,N,07336.79304,W,0.136,,220719,,,A*7D
15:05:57.069 -> $GNVTG,,T,,M,0.136,N,0.252,K,A*3C
15:05:57.102 -> $GNGGA,190559.00,4531.86583,N,07336.79304,W,1,12,0.77,62.2,M,-32.7,M,,*44
15:05:57.168 -> $GNGSA,A,3,02,12,19,17,05,09,06,23,,,,,1.45,0.77,1.23*18
15:05:57.235 -> $GNGSA,A,3,84,69,68,85,83,75,76,,,,,,1.45,0.77,1.23*14
15:05:57.301 -> $GPGSV,3,1,10,02,66,296,47,05,34,211,34,06,59,060,49,09,29,084,44*7E
15:05:57.367 -> $GPGSV,3,2,10,12,44,262,33,17,26,130,35,19,41,128,46,23,16,045,44*79
15:05:57.434 -> $GPGSV,3,3,10,25,26,307,28,29,02,309,19*7E
15:05:57.467 -> $GLGSV,3,1,10,68,40,044,43,69,60,129,48,70,16,183,24,74,10,241,18*64
15:05:57.567 -> $GLGSV,3,2,10,75,21,295,41,76,10,343,26,83,23,099,32,84,67,030,41*6F
15:05:57.633 -> $GLGSV,3,3,10,85,30,309,24,,,,47*55
15:05:57.666 -> $GNGLL,4531.86583,N,07336.79304,W,190559.00,A,A*6F
15:05:57.999 -> $GNRMC,190600.00,A,4531.86583,N,07336.79301,W,0.027,,220719,,,A*76
15:05:58.065 -> $GNVTG,,T,,M,0.027,N,0.050,K,A*3D
15:05:58.098 -> $GNGGA,190600.00,4531.86583,N,07336.79301,W,1,12,0.77,62.1,M,-32.7,M,,*4D
15:05:58.165 -> $GNGSA,A,3,02,12,19,17,05,09,06,23,,,,,1.45,0.77,1.23*18
15:05:58.231 -> $GNGSA,A,3,84,69,68,85,83,75,76,,,,,,1.45,0.77,1.23*14
15:05:58.297 -> $GPGSV,3,1,10,02,66,296,47,05,34,211,33,06,59,060,48,09,29,084,44*78
15:05:58.364 -> $GPGSV,3,2,10,12,44,262,32,17,26,130,35,19,41,128,45,23,16,045,43*7C
15:05:58.430 -> $GPGSV,3,3,10,25,26,307,26,29,02,309,17*7E
15:05:58.464 -> $GLGSV,3,1,10,68,40,044,44,69,60,129,48,70,16,183,22,74,10,241,18*65
15:05:58.563 -> $GLGSV,3,2,10,75,21,295,41,76,10,343,25,83,23,099,31,84,67,030,40*6E
15:05:58.630 -> $GLGSV,3,3,10,85,30,309,29,,,,47*58
15:05:58.663 -> $GNGLL,4531.86583,N,07336.79301,W,190600.00,A,A*65
15:05:59.029 -> $GNRMC,190601.00,A,4531.86583,N,07336.79300,W,0.104,,220719,,,A*76
15:05:59.095 -> $GNVTG,,T,,M,0.104,N,0.193,K,A*33
15:05:59.128 -> $GNGGA,190601.00,4531.86583,N,07336.79300,W,1,12,0.84,61.9,M,-32.7,M,,*4A
15:05:59.195 -> $GNGSA,A,3,02,12,19,17,05,09,06,23,,,,,1.67,0.84,1.44*15
15:05:59.261 -> $GNGSA,A,3,84,69,68,85,83,75,76,,,,,,1.67,0.84,1.44*19
15:05:59.328 -> $GPGSV,3,1,10,02,66,296,46,05,34,211,41,06,59,060,46,09,29,084,46*70
15:05:59.394 -> $GPGSV,3,2,10,12,44,262,32,17,26,130,36,19,41,128,47,23,16,045,43*7D
15:05:59.460 -> $GPGSV,3,3,10,25,26,307,27,29,02,309,18*70
15:05:59.494 -> $GLGSV,3,1,10,68,40,044,43,69,60,129,47,70,16,183,23,74,10,241,18*6C
15:05:59.593 -> $GLGSV,3,2,10,75,21,295,43,76,10,343,23,83,23,099,35,84,67,030,43*6D
15:05:59.660 -> $GLGSV,3,3,10,85,30,309,28,,,,48*56
15:05:59.693 -> $GNGLL,4531.86583,N,07336.79300,W,190601.00,A,A*65
15:05:59.992 -> $GNRMC,190602.00,A,4531.86584,N,07336.79298,W,0.054,,220719,,,A*76
15:06:00.059 -> $GNVTG,,T,,M,0.054,N,0.100,K,A*3D
15:06:00.092 -> $GNGGA,190602.00,4531.86584,N,07336.79298,W,1,12,0.81,61.8,M,-32.7,M,,*4A
15:06:00.158 -> $GNGSA,A,3,02,19,17,05,09,06,23,,,,,,1.48,0.81,1.24*18
15:06:00.225 -> $GNGSA,A,3,84,69,68,85,83,75,76,,,,,,1.48,0.81,1.24*17
15:06:00.291 -> $GPGSV,3,1,10,02,66,296,44,05,34,211,45,06,59,060,47,09,29,084,47*76
15:06:00.358 -> $GPGSV,3,2,10,12,44,262,,17,26,130,37,19,41,128,47,23,16,045,44*7A
15:06:00.424 -> $GPGSV,3,3,10,25,26,307,26,29,02,309,22*78
15:06:00.457 -> $GLGSV,3,1,10,68,40,044,43,69,60,129,50,70,16,183,25,74,10,241,20*67
15:06:00.524 -> $GLGSV,3,2,10,75,21,295,45,76,10,343,27,83,23,099,38,84,67,030,44*65
15:06:00.623 -> $GLGSV,3,3,10,85,30,309,27,,,,48*59
15:06:00.690 -> $GNGLL,4531.86584,N,07336.79298,W,190602.00,A,A*61
15:06:01.022 -> $GNRMC,190603.00,A,4531.86583,N,07336.79299,W,0.034,,220719,,,A*77
15:06:01.089 -> $GNVTG,,T,,M,0.034,N,0.063,K,A*3F
15:06:01.122 -> $GNGGA,190603.00,4531.86583,N,07336.79299,W,1,12,0.76,61.9,M,-32.7,M,,*44
15:06:01.189 -> $GNGSA,A,3,02,19,17,05,09,06,23,,,,,,1.41,0.76,1.18*16
15:06:01.255 -> $GNGSA,A,3,84,69,68,85,83,75,76,,,,,,1.41,0.76,1.18*19
15:06:01.322 -> $GPGSV,3,1,10,02,66,296,44,05,34,211,44,06,59,060,47,09,29,084,47*77
15:06:01.388 -> $GPGSV,3,2,10,12,44,262,,17,26,130,38,19,41,128,47,23,16,045,42*73
15:06:01.455 -> $GPGSV,3,3,10,25,26,307,25,29,02,309,25*7C
15:06:01.488 -> $GLGSV,3,1,10,68,40,044,44,69,60,129,50,70,16,183,23,74,10,241,23*65
15:06:01.554 -> $GLGSV,3,2,10,75,21,295,44,76,10,343,31,83,23,099,38,84,67,030,44*63
15:06:01.654 -> $GLGSV,3,3,10,85,30,309,27,,,,48*59
15:06:01.687 -> $GNGLL,4531.86583,N,07336.79299,W,190603.00,A,A*66
15:06:02.020 -> $GNRMC,190604.00,A,4531.86581,N,07336.79298,W,0.049,,220719,,,A*79
15:06:02.086 -> $GNVTG,,T,,M,0.049,N,0.090,K,A*39
15:06:02.119 -> $GNGGA,190604.00,4531.86581,N,07336.79298,W,1,12,0.81,61.9,M,-32.7,M,,*48
15:06:02.186 -> $GNGSA,A,3,02,19,17,05,09,06,23,,,,,,1.48,0.81,1.24*18
15:06:02.252 -> $GNGSA,A,3,84,69,68,85,83,75,76,,,,,,1.48,0.81,1.24*17
15:06:02.319 -> $GPGSV,3,1,10,02,66,296,44,05,34,211,46,06,59,060,49,09,29,084,47*7B
15:06:02.385 -> $GPGSV,3,2,10,12,44,262,,17,26,130,38,19,41,128,48,23,16,045,43*7D
15:06:02.452 -> $GPGSV,3,3,10,25,26,307,26,29,02,309,26*7C
15:06:02.485 -> $GLGSV,3,1,10,68,40,044,44,69,60,129,49,70,16,183,21,74,10,241,25*69
15:06:02.551 -> $GLGSV,3,2,10,75,21,295,44,76,10,343,32,83,23,099,38,84,67,030,44*60
15:06:02.651 -> $GLGSV,3,3,10,85,30,309,30,,,,49*5E
15:06:02.684 -> $GNGLL,4531.86581,N,07336.79298,W,190604.00,A,A*62
15:06:03.017 -> $GNRMC,190605.00,A,4531.86581,N,07336.79300,W,0.021,,220719,,,A*76
15:06:03.083 -> $GNVTG,,T,,M,0.021,N,0.039,K,A*34
15:06:03.116 -> $GNGGA,190605.00,4531.86581,N,07336.79300,W,1,12,0.81,61.8,M,-32.7,M,,*48
15:06:03.183 -> $GNGSA,A,3,02,12,19,17,05,09,06,23,,,,,1.54,0.81,1.31*12
15:06:03.249 -> $GNGSA,A,3,84,69,68,85,83,75,76,,,,,,1.54,0.81,1.31*1E
15:06:03.316 -> $GPGSV,3,1,10,02,66,296,45,05,34,211,48,06,59,060,50,09,29,084,47*7C
15:06:03.382 -> $GPGSV,3,2,10,12,44,262,39,17,26,130,39,19,41,128,48,23,16,045,43*76
15:06:03.449 -> $GPGSV,3,3,10,25,26,307,29,29,02,309,26*73
15:06:03.482 -> $GLGSV,3,1,10,68,40,044,44,69,60,129,49,70,16,183,18,74,10,241,23*65
15:06:03.582 -> $GLGSV,3,2,10,75,21,295,43,76,10,343,35,83,23,099,37,84,67,030,45*6E
15:06:03.648 -> $GLGSV,3,3,10,85,30,309,31,,,,49*5F
15:06:03.681 -> $GNGLL,4531.86581,N,07336.79300,W,190605.00,A,A*63
15:06:04.014 -> $GNRMC,190606.00,A,4531.86582,N,07336.79312,W,0.454,274.83,220719,,,A*67
15:06:04.080 -> $GNVTG,274.83,T,,M,0.454,N,0.840,K,A*20
15:06:04.113 -> $GNGGA,190606.00,4531.86582,N,07336.79312,W,1,12,0.90,61.7,M,-32.7,M,,*44
15:06:04.180 -> $GNGSA,A,3,02,12,19,17,05,09,06,23,,,,,1.75,0.90,1.50*16
15:06:04.246 -> $GNGSA,A,3,84,69,68,85,83,75,76,,,,,,1.75,0.90,1.50*1A
15:06:04.313 -> $GPGSV,3,1,10,02,66,296,45,05,34,211,50,06,59,060,48,09,29,084,49*72
15:06:04.379 -> $GPGSV,3,2,10,12,44,262,34,17,26,130,28,19,41,128,46,23,16,045,39*78
15:06:04.446 -> $GPGSV,3,3,10,25,26,307,31,29,02,309,26*7A
15:06:04.512 -> $GLGSV,3,1,10,68,40,044,44,69,60,129,48,70,16,183,17,74,10,241,22*6A
15:06:04.579 -> $GLGSV,3,2,10,75,21,295,42,76,10,343,33,83,23,099,37,84,67,030,42*6E
15:06:04.645 -> $GLGSV,3,3,10,85,30,309,26,,,,48*58
15:06:04.678 -> $GNGLL,4531.86582,N,07336.79312,W,190606.00,A,A*60
15:06:05.010 -> $GNRMC,190607.00,A,4531.86577,N,07336.79322,W,0.314,,220719,,,A*78
15:06:05.077 -> $GNVTG,,T,,M,0.314,N,0.582,K,A*34
15:06:05.110 -> $GNGGA,190607.00,4531.86577,N,07336.79322,W,1,12,0.77,61.8,M,-32.7,M,,*4A
15:06:05.176 -> $GNGSA,A,3,02,12,19,17,05,09,06,23,,,,,1.50,0.77,1.29*16
15:06:05.243 -> $GNGSA,A,3,84,69,68,85,83,75,76,,,,,,1.50,0.77,1.29*1A
15:06:05.309 -> $GPGSV,3,1,10,02,66,296,38,05,34,211,43,06,59,060,43,09,29,084,40*78
15:06:05.376 -> $GPGSV,3,2,10,12,44,262,36,17,26,130,34,19,41,128,41,23,16,045,33*7A
15:06:05.442 -> $GPGSV,3,3,10,25,26,307,27,29,02,309,23*78
15:06:05.476 -> $GLGSV,3,1,10,68,40,044,38,69,60,129,33,70,16,183,19,74,10,241,22*63
15:06:05.575 -> $GLGSV,3,2,10,75,21,295,40,76,10,343,22,83,23,099,32,84,67,030,22*6F
15:06:05.642 -> $GLGSV,3,3,10,85,30,309,33,,,,33*50
15:06:05.675 -> $GNGLL,4531.86577,N,07336.79322,W,190607.00,A,A*68
15:06:06.007 -> $GNRMC,190608.00,A,4531.86574,N,07336.79318,W,0.214,,220719,,,A*7C
15:06:06.073 -> $GNVTG,,T,,M,0.214,N,0.397,K,A*37
15:06:06.107 -> $GNGGA,190608.00,4531.86574,N,07336.79318,W,1,12,0.80,61.7,M,-32.7,M,,*48
15:06:06.173 -> $GNGSA,A,3,02,12,19,17,05,09,06,23,,,,,1.52,0.80,1.29*1C
15:06:06.239 -> $GNGSA,A,3,84,69,68,85,83,75,76,,,,,,1.52,0.80,1.29*10
15:06:06.306 -> $GPGSV,3,1,10,02,66,296,42,05,34,211,44,06,59,060,43,09,29,084,43*71
15:06:06.372 -> $GPGSV,3,2,10,12,44,262,40,17,26,130,37,19,41,128,45,23,16,045,29*77
15:06:06.439 -> $GPGSV,3,3,10,25,26,307,29,29,02,309,23*76
15:06:06.472 -> $GLGSV,3,1,10,68,40,044,43,69,60,129,30,70,16,183,20,74,10,241,21*65
15:06:06.572 -> $GLGSV,3,2,10,75,21,295,27,76,10,343,28,83,23,099,32,84,67,030,25*63
15:06:06.638 -> $GLGSV,3,3,10,85,30,309,28,,,,30*59
15:06:06.671 -> $GNGLL,4531.86574,N,07336.79318,W,190608.00,A,A*6D
15:06:07.003 -> $GNRMC,190609.00,A,4531.86573,N,07336.79311,W,0.074,,220719,,,A*77
15:06:07.070 -> $GNVTG,,T,,M,0.074,N,0.136,K,A*3A
15:06:07.103 -> $GNGGA,190609.00,4531.86573,N,07336.79311,W,1,12,0.82,61.7,M,-32.7,M,,*45
15:06:07.169 -> $GNGSA,A,3,02,12,19,17,05,09,06,23,,,,,1.65,0.82,1.43*16
15:06:07.236 -> $GNGSA,A,3,84,69,68,85,83,75,76,,,,,,1.65,0.82,1.43*1A
15:06:07.302 -> $GPGSV,3,1,10,02,66,296,38,05,34,211,47,06,59,060,38,09,29,084,42*72
15:06:07.369 -> $GPGSV,3,2,10,12,44,262,39,17,26,130,38,19,41,128,47,23,16,045,37*7B
15:06:07.435 -> $GPGSV,3,3,10,25,26,307,28,29,02,309,26*72
15:06:07.469 -> $GLGSV,3,1,10,68,40,044,41,69,60,129,40,70,16,183,24,74,10,241,21*64
15:06:07.568 -> $GLGSV,3,2,10,75,21,295,36,76,10,343,27,83,23,099,26,84,67,030,28*64
15:06:07.635 -> $GLGSV,3,3,10,85,30,309,37,,,,37*50
15:06:07.668 -> $GNGLL,4531.86573,N,07336.79311,W,190609.00,A,A*62
15:06:08.000 -> $GNRMC,190610.00,A,4531.86574,N,07336.79308,W,0.015,,220719,,,A*77
15:06:08.066 -> $GNVTG,,T,,M,0.015,N,0.028,K,A*33
15:06:08.100 -> $GNGGA,190610.00,4531.86574,N,07336.79308,W,1,12,0.75,61.8,M,-32.7,M,,*45
15:06:08.166 -> $GNGSA,A,3,02,12,19,17,05,09,06,23,,,,,1.40,0.75,1.18*17
15:06:08.232 -> $GNGSA,A,3,84,69,68,85,83,75,76,,,,,,1.40,0.75,1.18*1B
15:06:08.299 -> $GPGSV,3,1,10,02,66,296,40,05,34,211,46,06,59,060,34,09,29,084,42*70
15:06:08.365 -> $GPGSV,3,2,10,12,44,262,37,17,26,130,38,19,41,128,46,23,16,045,38*7B
15:06:08.431 -> $GPGSV,3,3,10,25,26,307,28,29,02,309,27*73
15:06:08.465 -> $GLGSV,3,1,10,68,40,044,40,69,60,128,40,70,16,183,27,74,10,241,21*67
15:06:08.564 -> $GLGSV,3,2,10,75,21,295,39,76,10,343,26,83,23,099,32,84,67,030,28*6F
15:06:08.631 -> $GLGSV,3,3,10,85,30,309,37,,,,38*5F
15:06:08.664 -> $GNGLL,4531.86574,N,07336.79308,W,190610.00,A,A*65
15:06:08.996 -> $GNRMC,190611.00,A,4531.86572,N,07336.79308,W,0.024,,220719,,,A*72
15:06:09.063 -> $GNVTG,,T,,M,0.024,N,0.044,K,A*3B
15:06:09.096 -> $GNGGA,190611.00,4531.86572,N,07336.79308,W,1,12,0.79,61.9,M,-32.7,M,,*4F
15:06:09.162 -> $GNGSA,A,3,02,12,19,17,05,09,06,23,,,,,1.42,0.79,1.18*19
15:06:09.229 -> $GNGSA,A,3,84,69,68,85,83,75,76,,,,,,1.42,0.79,1.18*15
15:06:09.295 -> $GPGSV,3,1,10,02,66,296,41,05,34,211,47,06,59,060,38,09,29,084,43*7D
15:06:09.395 -> $GPGSV,3,2,10,12,44,262,37,17,26,130,38,19,41,128,47,23,16,045,38*7A
15:06:09.461 -> $GPGSV,3,3,10,25,26,307,29,29,02,309,27*72
15:06:09.494 -> $GLGSV,3,1,10,68,40,044,40,69,60,128,41,70,16,183,28,74,10,241,22*6A
15:06:09.594 -> $GLGSV,3,2,10,75,21,295,38,76,10,343,26,83,23,099,31,84,67,030,28*6D
15:06:09.660 -> $GLGSV,3,3,10,85,30,309,38,,,,40*5F
15:06:09.694 -> $GNGLL,4531.86572,N,07336.79308,W,190611.00,A,A*62
15:06:09.993 -> $GNRMC,190612.00,A,4531.86577,N,07336.79309,W,0.015,,220719,,,A*77
15:06:10.059 -> $GNVTG,,T,,M,0.015,N,0.027,K,A*3C
15:06:10.092 -> $GNGGA,190612.00,4531.86577,N,07336.79309,W,1,12,0.81,61.9,M,-32.7,M,,*4F
15:06:10.159 -> $GNGSA,A,3,02,12,19,17,05,09,06,23,,,,,1.54,0.81,1.31*12
15:06:10.225 -> $GNGSA,A,3,84,69,68,85,83,75,76,,,,,,1.54,0.81,1.31*1E
15:06:10.325 -> $GPGSV,3,1,10,02,66,296,42,05,34,211,48,06,59,060,41,09,29,084,46*7A
15:06:10.358 -> $GPGSV,3,2,10,12,44,262,39,17,26,130,40,19,41,128,48,23,16,045,37*7B
15:06:10.424 -> $GPGSV,3,3,10,25,26,307,32,29,02,309,27*78
15:06:10.458 -> $GLGSV,3,1,10,68,40,044,40,69,60,128,44,70,16,183,29,74,10,241,21*6D
15:06:10.590 -> $GLGSV,3,2,10,75,21,295,39,76,10,343,23,83,23,099,33,84,67,030
