15:07:50.021 -> $GNRMC,190752.00,A,4531.85940,N,07336.78472,W,0.191,,220719,,,A*7E
15:07:50.088 -> $GNVTG,,T,,M,0.191,N,0.354,K,A*36
15:07:50.121 -> $GNGGA,190752.00,4531.85940,N,07336.78472,W,1,12,0.78,64.0,M,-32.7,M,,*41
15:07:50.187 -> $GNGSA,A,3,02,25,12,19,17,05,09,06,23,,,,1.51,0.78,1.29*1F
15:07:50.253 -> $GNGSA,A,3,84,69,68,85,83,75,76,,,,,,1.51,0.78,1.29*14
15:07:50.319 -> $GPGSV,3,1,10,02,67,298,44,05,34,211,38,06,58,061,43,09,29,083,43*74
15:07:50.386 -> $GPGSV,3,2,10,12,44,260,51,17,25,131,29,19,40,128,27,23,15,044,25*73
15:07:50.452 -> $GPGSV,3,3,10,25,27,306,40,29,03,309,28*73
15:07:50.485 -> $GLGSV,3,1,10,68,39,043,44,69,60,128,27,70,17,183,23,74,09,241,20*67
15:07:50.585 -> $GLGSV,3,2,10,75,21,294,44,76,11,342,22,83,23,099,21,84,67,033,34*6C
15:07:50.651 -> $GLGSV,3,3,10,85,30,309,42,,,,41*53
15:07:50.685 -> $GNGLL,4531.85940,N,07336.78472,W,190752.00,A,A*61
15:07:51.017 -> $GNRMC,190753.00,A,4531.85941,N,07336.78474,W,0.014,,220719,,,A*74
15:07:51.083 -> $GNVTG,,T,,M,0.014,N,0.027,K,A*3D
15:07:51.117 -> $GNGGA,190753.00,4531.85941,N,07336.78474,W,1,12,0.86,63.8,M,-32.7,M,,*49
15:07:51.183 -> $GNGSA,A,3,02,25,12,19,17,05,09,06,,,,,1.69,0.86,1.46*1D
15:07:51.250 -> $GNGSA,A,3,84,69,68,85,83,75,76,,,,,,1.69,0.86,1.46*17
15:07:51.316 -> $GPGSV,3,1,10,02,67,298,45,05,34,211,49,06,58,061,48,09,29,083,39*75
15:07:51.383 -> $GPGSV,3,2,10,12,44,260,50,17,25,131,31,19,40,128,25,23,15,044,*7E
15:07:51.449 -> $GPGSV,3,3,10,25,27,306,38,29,03,309,29*7D
15:07:51.482 -> $GLGSV,3,1,10,68,39,043,44,69,60,128,32,70,17,183,22,74,09,241,15*64
15:07:51.582 -> $GLGSV,3,2,10,75,21,294,43,76,11,342,21,83,23,099,23,84,67,033,34*6A
15:07:51.648 -> $GLGSV,3,3,10,85,30,309,40,,,,43*53
15:07:51.682 -> $GNGLL,4531.85941,N,07336.78474,W,190753.00,A,A*67
15:07:52.014 -> $GNRMC,190754.00,A,4531.85944,N,07336.78473,W,0.055,,220719,,,A*74
15:07:52.081 -> $GNVTG,,T,,M,0.055,N,0.102,K,A*3E
15:07:52.114 -> $GNGGA,190754.00,4531.85944,N,07336.78473,W,1,12,0.78,63.5,M,-32.7,M,,*40
15:07:52.180 -> $GNGSA,A,3,02,25,12,19,17,05,09,06,23,,,,1.51,0.78,1.29*1F
15:07:52.247 -> $GNGSA,A,3,84,69,68,85,83,75,76,,,,,,1.51,0.78,1.29*14
15:07:52.313 -> $GPGSV,3,1,10,02,67,298,44,05,34,211,47,06,58,061,51,09,29,083,27*7D
15:07:52.380 -> $GPGSV,3,2,10,12,44,260,49,17,25,131,26,19,40,128,26,23,15,044,36*76
15:07:52.446 -> $GPGSV,3,3,10,25,27,306,40,29,03,309,28*73
15:07:52.479 -> $GLGSV,3,1,10,68,39,043,45,69,60,128,33,70,17,183,19,74,09,241,17*6E
15:07:52.579 -> $GLGSV,3,2,10,75,21,294,44,76,11,342,30,83,23,099,22,84,67,033,41*6E
15:07:52.645 -> $GLGSV,3,3,10,85,30,309,41,,,,47*56
15:07:52.679 -> $GNGLL,4531.85944,N,07336.78473,W,190754.00,A,A*62
15:07:53.011 -> $GNRMC,190755.00,A,4531.85945,N,07336.78477,W,0.127,,220719,,,A*74
15:07:53.077 -> $GNVTG,,T,,M,0.127,N,0.235,K,A*3D
15:07:53.111 -> $GNGGA,190755.00,4531.85945,N,07336.78477,W,1,12,0.94,63.7,M,-32.7,M,,*44
15:07:53.177 -> $GNGSA,A,3,02,25,12,19,17,05,06,,,,,,1.87,0.94,1.62*11
15:07:53.244 -> $GNGSA,A,3,84,69,68,85,83,75,76,,,,,,1.87,0.94,1.62*12
15:07:53.310 -> $GPGSV,3,1,10,02,67,298,42,05,34,211,42,06,58,061,46,09,29,083,31*7F
15:07:53.376 -> $GPGSV,3,2,10,12,44,260,49,17,25,131,32,19,40,128,25,23,15,044,*75
15:07:53.443 -> $GPGSV,3,3,10,25,27,306,41,29,03,309,31*7A
15:07:53.476 -> $GLGSV,3,1,10,68,39,043,50,69,60,128,33,70,17,183,21,74,09,241,17*61
15:07:53.542 -> $GLGSV,3,2,10,75,21,294,40,76,11,342,40,83,23,099,20,84,67,033,39*60
15:07:53.642 -> $GLGSV,3,3,10,85,30,309,35,,,,46*54
15:07:53.675 -> $GNGLL,4531.85945,N,07336.78477,W,190755.00,A,A*66
15:07:54.008 -> $GNRMC,190756.00,A,4531.85946,N,07336.78477,W,0.008,,220719,,,A*78
15:07:54.074 -> $GNVTG,,T,,M,0.008,N,0.015,K,A*31
15:07:54.107 -> $GNGGA,190756.00,4531.85946,N,07336.78477,W,1,12,0.73,63.8,M,-32.7,M,,*42
15:07:54.174 -> $GNGSA,A,3,02,25,12,19,17,05,09,06,23,,,,1.42,0.73,1.21*1E
15:07:54.240 -> $GNGSA,A,3,84,69,68,85,83,75,76,,,,,,1.42,0.73,1.21*15
15:07:54.306 -> $GPGSV,3,1,10,02,67,298,40,05,34,211,50,06,58,061,46,09,29,083,35*7A
15:07:54.373 -> $GPGSV,3,2,10,12,44,260,47,17,25,131,26,19,40,128,26,23,15,044,35*7B
15:07:54.439 -> $GPGSV,3,3,10,25,27,306,36,29,03,309,33*78
15:07:54.473 -> $GLGSV,3,1,10,68,39,043,42,69,60,128,27,70,17,183,19,74,09,241,17*6C
15:07:54.572 -> $GLGSV,3,2,10,75,21,294,34,76,11,342,21,83,23,099,19,84,67,033,34*63
15:07:54.640 -> $GLGSV,3,3,10,85,30,309,41,,,,43*52
15:07:54.672 -> $GNGLL,4531.85946,N,07336.78477,W,190756.00,A,A*66
15:07:55.004 -> $GNRMC,190757.00,A,4531.85946,N,07336.78489,W,0.051,,220719,,,A*74
15:07:55.071 -> $GNVTG,,T,,M,0.051,N,0.094,K,A*34
15:07:55.104 -> $GNGGA,190757.00,4531.85946,N,07336.78489,W,1,12,0.76,64.1,M,-32.7,M,,*49
15:07:55.170 -> $GNGSA,A,3,02,25,12,19,17,05,09,06,23,,,,1.51,0.76,1.31*18
15:07:55.237 -> $GNGSA,A,3,84,69,68,85,83,75,76,,,,,,1.51,0.76,1.31*13
15:07:55.303 -> $GPGSV,3,1,10,02,67,298,42,05,34,211,47,06,58,061,47,09,29,083,40*7D
15:07:55.370 -> $GPGSV,3,2,10,12,44,260,43,17,25,131,31,19,40,128,28,23,15,044,35*77
15:07:55.436 -> $GPGSV,3,3,10,25,27,306,39,29,03,309,33*77
15:07:55.469 -> $GLGSV,3,1,10,68,39,043,46,69,60,128,35,70,17,183,17,74,09,241,15*67
15:07:55.569 -> $GLGSV,3,2,10,75,21,294,39,76,11,342,36,83,23,099,18,84,67,033,39*64
15:07:55.635 -> $GLGSV,3,3,10,85,30,309,39,,,,43*5D
15:07:55.669 -> $GNGLL,4531.85946,N,07336.78489,W,190757.00,A,A*66
15:07:56.034 -> $GNRMC,190758.00,A,4531.85951,N,07336.78508,W,0.188,,220719,,,A*70
15:07:56.101 -> $GNVTG,,T,,M,0.188,N,0.349,K,A*32
15:07:56.134 -> $GNGGA,190758.00,4531.85951,N,07336.78508,W,1,12,0.79,64.8,M,-32.7,M,,*4E
15:07:56.200 -> $GNGSA,A,3,02,25,12,19,17,05,09,06,23,,,,1.60,0.79,1.39*1D
15:07:56.267 -> $GNGSA,A,3,84,69,68,85,83,75,76,,,,,,1.60,0.79,1.39*16
15:07:56.333 -> $GPGSV,3,1,10,02,67,298,38,05,34,211,45,06,58,061,47,09,29,083,39*7C
15:07:56.400 -> $GPGSV,3,2,10,12,44,260,47,17,25,131,30,19,40,128,20,23,15,044,32*7D
15:07:56.466 -> $GPGSV,3,3,10,25,27,306,36,29,03,309,31*7A
15:07:56.499 -> $GLGSV,3,1,10,68,39,043,45,69,60,128,31,70,17,183,15,74,09,241,12*65
15:07:56.599 -> $GLGSV,3,2,10,75,21,294,36,76,11,342,32,83,23,099,18,84,67,033,35*63
15:07:56.666 -> $GLGSV,3,3,10,85,30,309,38,,,,41*5E
15:07:56.699 -> $GNGLL,4531.85951,N,07336.78508,W,190758.00,A,A*67
15:07:56.998 -> $GNRMC,190759.00,A,4531.85950,N,07336.78518,W,0.009,,220719,,,A*79
15:07:57.064 -> $GNVTG,,T,,M,0.009,N,0.017,K,A*32
15:07:57.097 -> $GNGGA,190759.00,4531.85950,N,07336.78518,W,1,12,0.76,65.3,M,-32.7,M,,*4A
15:07:57.164 -> $GNGSA,A,3,02,25,12,19,17,05,09,06,23,,,,1.51,0.76,1.31*18
15:07:57.230 -> $GNGSA,A,3,84,69,68,85,83,75,76,,,,,,1.51,0.76,1.31*13
15:07:57.297 -> $GPGSV,3,1,10,02,67,298,38,05,34,211,45,06,58,061,47,09,29,083,38*7D
15:07:57.363 -> $GPGSV,3,2,10,12,44,260,47,17,25,131,29,19,40,128,21,23,15,044,34*72
15:07:57.430 -> $GPGSV,3,3,10,25,27,306,30,29,03,309,33*7E
15:07:57.463 -> $GLGSV,3,1,10,68,39,043,45,69,60,128,30,70,17,183,11,74,09,241,11*63
15:07:57.563 -> $GLGSV,3,2,10,75,21,294,37,76,11,342,32,83,23,099,17,84,67,033,34*6C
15:07:57.629 -> $GLGSV,3,3,10,85,30,309,38,,,,40*5F
15:07:57.662 -> $GNGLL,4531.85950,N,07336.78518,W,190759.00,A,A*66
15:07:57.994 -> $GNRMC,190800.00,A,4531.85943,N,07336.78522,W,0.088,,220719,,,A*78
15:07:58.061 -> $GNVTG,,T,,M,0.088,N,0.163,K,A*39
15:07:58.094 -> $GNGGA,190800.00,4531.85943,N,07336.78522,W,1,12,0.78,65.7,M,-32.7,M,,*48
15:07:58.161 -> $GNGSA,A,3,02,25,12,19,17,05,09,06,23,,,,1.55,0.78,1.33*10
15:07:58.227 -> $GNGSA,A,3,84,69,68,85,83,75,76,,,,,,1.55,0.78,1.33*1B
15:07:58.293 -> $GPGSV,3,1,10,02,67,298,40,05,34,211,46,06,58,061,46,09,29,083,38*70
15:07:58.360 -> $GPGSV,3,2,10,12,44,260,47,17,25,131,28,19,40,128,24,23,15,044,35*77
15:07:58.426 -> $GPGSV,3,3,10,25,27,306,24,29,03,309,32*7A
15:07:58.493 -> $GLGSV,3,1,10,68,39,043,43,69,60,128,22,70,17,183,08,74,09,241,08*66
15:07:58.592 -> $GLGSV,3,2,10,75,21,294,38,76,11,342,34,83,23,099,15,84,67,033,34*67
15:07:58.659 -> $GLGSV,3,3,10,85,30,309,38,,,,40*5F
15:07:58.692 -> $GNGLL,4531.85943,N,07336.78522,W,190800.00,A,A*6E
15:07:59.024 -> $GNRMC,190801.00,A,4531.85940,N,07336.78529,W,0.056,,220719,,,A*72
15:07:59.091 -> $GNVTG,,T,,M,0.056,N,0.103,K,A*3C
15:07:59.124 -> $GNGGA,190801.00,4531.85940,N,07336.78529,W,1,12,0.76,66.0,M,-32.7,M,,*4B
15:07:59.190 -> $GNGSA,A,3,02,25,12,19,17,05,09,06,23,,,,1.51,0.76,1.31*18
15:07:59.257 -> $GNGSA,A,3,84,69,68,85,83,75,76,,,,,,1.51,0.76,1.31*13
15:07:59.323 -> $GPGSV,3,1,10,02,67,298,43,05,34,211,47,06,58,061,44,09,29,083,34*7C
15:07:59.390 -> $GPGSV,3,2,10,12,44,260,40,17,25,131,27,19,40,128,28,23,15,044,36*70
15:07:59.456 -> $GPGSV,3,3,10,25,27,306,34,29,03,309,30*79
15:07:59.489 -> $GLGSV,3,1,10,68,39,043,43,69,60,128,22,70,17,183,08,74,09,241,08*66
15:07:59.589 -> $GLGSV,3,2,10,75,21,294,36,76,11,342,35,83,23,099,17,84,67,033,34*6A
15:07:59.655 -> $GLGSV,3,3,10,85,30,309,35,,,,41*53
15:07:59.688 -> $GNGLL,4531.85940,N,07336.78529,W,190801.00,A,A*67
15:08:00.021 -> $GNRMC,190802.00,A,4531.85939,N,07336.78526,W,0.052,,220719,,,A*74
15:08:00.087 -> $GNVTG,,T,,M,0.052,N,0.096,K,A*35
15:08:00.121 -> $GNGGA,190802.00,4531.85939,N,07336.78526,W,1,12,0.73,66.2,M,-32.7,M,,*4E
15:08:00.187 -> $GNGSA,A,3,02,25,12,19,17,05,09,06,23,,,,1.42,0.73,1.21*1E
15:08:00.253 -> $GNGSA,A,3,84,69,68,85,83,75,76,,,,,,1.42,0.73,1.21*15
15:08:00.320 -> $GPGSV,3,1,10,02,67,298,42,05,34,211,46,06,58,061,46,09,29,083,39*73
15:08:00.386 -> $GPGSV,3,2,10,12,44,260,45,17,25,131,29,19,40,128,28,23,15,044,36*7B
15:08:00.453 -> $GPGSV,3,3,10,25,27,306,24,29,03,309,30*78
15:08:00.486 -> $GLGSV,3,1,10,68,39,043,45,69,60,128,23,70,17,183,,74,09,241,08*69
15:08:00.585 -> $GLGSV,3,2,10,75,21,294,38,76,11,342,38,83,23,099,19,84,67,033,36*65
15:08:00.652 -> $GLGSV,3,3,10,85,30,309,39,,,,42*5C
15:08:00.685 -> $GNGLL,4531.85939,N,07336.78526,W,190802.00,A,A*65
15:08:01.017 -> $GNRMC,190803.00,A,4531.85939,N,07336.78524,W,0.009,,220719,,,A*79
15:08:01.084 -> $GNVTG,,T,,M,0.009,N,0.016,K,A*33
15:08:01.117 -> $GNGGA,190803.00,4531.85939,N,07336.78524,W,1,12,0.73,66.5,M,-32.7,M,,*4A
15:08:01.183 -> $GNGSA,A,3,02,25,12,19,17,05,09,06,23,,,,1.42,0.73,1.21*1E
15:08:01.250 -> $GNGSA,A,3,84,69,68,85,83,75,76,,,,,,1.42,0.73,1.21*15
15:08:01.316 -> $GPGSV,3,1,10,02,67,298,42,05,34,211,49,06,58,061,45,09,29,083,40*71
15:08:01.383 -> $GPGSV,3,2,10,12,44,260,44,17,25,131,31,19,40,128,28,23,15,044,36*73
15:08:01.449 -> $GPGSV,3,3,10,25,27,306,34,29,03,309,32*7B
15:08:01.483 -> $GLGSV,3,1,10,68,39,043,43,69,60,128,25,70,17,183,,74,09,241,11*61
15:08:01.582 -> $GLGSV,3,2,10,75,21,294,41,76,11,342,37,83,23,099,18,84,67,033,36*65
15:08:01.649 -> $GLGSV,3,3,10,85,30,309,42,,,,41*53
15:08:01.682 -> $GNGLL,4531.85939,N,07336.78524,W,190803.00,A,A*66
15:08:02.014 -> $GNRMC,190804.00,A,4531.85941,N,07336.78528,W,0.050,,220719,,,A*71
15:08:02.080 -> $GNVTG,,T,,M,0.050,N,0.093,K,A*32
15:08:02.114 -> $GNGGA,190804.00,4531.85941,N,07336.78528,W,1,12,0.73,66.8,M,-32.7,M,,*43
15:08:02.180 -> $GNGSA,A,3,02,25,12,19,17,05,09,06,23,,,,1.42,0.73,1.21*1E
15:08:02.247 -> $GNGSA,A,3,84,69,68,85,83,75,76,,,,,,1.42,0.73,1.21*15
15:08:02.313 -> $GPGSV,3,1,10,02,67,298,43,05,34,211,49,06,58,061,42,09,29,083,26*77
15:08:02.379 -> $GPGSV,3,2,10,12,44,260,41,17,25,131,30,19,40,128,31,23,15,044,35*7C
15:08:02.446 -> $GPGSV,3,3,10,25,27,306,40,29,03,309,28*73
15:08:02.479 -> $GLGSV,3,1,10,68,39,043,42,69,61,127,32,70,17,183,,74,09,241,11*68
15:08:02.579 -> $GLGSV,3,2,10,75,21,294,39,76,11,342,34,83,23,099,22,84,67,033,32*64
15:08:02.645 -> $GLGSV,3,3,10,85,30,309,39,,,,42*5C
15:08:02.678 -> $GNGLL,4531.85941,N,07336.78528,W,190804.00,A,A*62
15:08:03.010 -> $GNRMC,190805.00,A,4531.85943,N,07336.78537,W,0.043,,220719,,,A*7E
15:08:03.077 -> $GNVTG,,T,,M,0.043,N,0.080,K,A*32
15:08:03.110 -> $GNGGA,190805.00,4531.85943,N,07336.78537,W,1,12,0.82,67.0,M,-32.7,M,,*49
15:08:03.177 -> $GNGSA,A,3,02,25,12,19,17,05,09,06,23,,,,1.57,0.82,1.34*10
15:08:03.243 -> $GNGSA,A,3,84,69,68,85,83,75,76,,,,,,1.57,0.82,1.34*1B
15:08:03.309 -> $GPGSV,3,1,10,02,67,298,44,05,34,211,48,06,58,061,41,09,29,083,33*76
15:08:03.376 -> $GPGSV,3,2,10,12,44,260,41,17,25,131,27,19,40,128,32,23,15,044,34*78
15:08:03.442 -> $GPGSV,3,3,10,25,27,306,42,29,03,309,17*7D
15:08:03.475 -> $GLGSV,3,1,10,68,39,043,42,69,61,127,33,70,17,183,,74,09,241,11*69
15:08:03.575 -> $GLGSV,3,2,10,75,21,294,33,76,11,342,27,83,23,099,23,84,67,033,31*6E
15:08:03.642 -> $GLGSV,3,3,10,85,30,309,42,,,,42*50
15:08:03.675 -> $GNGLL,4531.85943,N,07336.78537,W,190805.00,A,A*6F
15:08:04.007 -> $GNRMC,190806.00,A,4531.85946,N,07336.78540,W,0.021,,220719,,,A*7C
15:08:04.074 -> $GNVTG,,T,,M,0.021,N,0.039,K,A*34
15:08:04.107 -> $GNGGA,190806.00,4531.85946,N,07336.78540,W,1,12,0.82,67.3,M,-32.7,M,,*4C
15:08:04.174 -> $GNGSA,A,3,02,25,12,19,17,05,09,06,23,,,,1.57,0.82,1.34*10
15:08:04.240 -> $GNGSA,A,3,84,69,68,85,83,75,76,,,,,,1.57,0.82,1.34*1B
15:08:04.306 -> $GPGSV,3,1,10,02,67,298,44,05,34,211,48,06,58,061,41,09,29,083,31*74
15:08:04.373 -> $GPGSV,3,2,10,12,44,260,38,17,25,131,26,19,40,128,32,23,15,044,34*77
15:08:04.439 -> $GPGSV,3,3,10,25,27,306,41,29,03,309,15*7C
15:08:04.472 -> $GLGSV,3,1,10,68,39,043,43,69,61,127,31,70,17,183,,74,09,241,11*6A
15:08:04.572 -> $GLGSV,3,2,10,75,21,294,33,76,11,342,26,83,23,099,24,84,67,033,30*69
15:08:04.639 -> $GLGSV,3,3,10,85,30,309,42,,,,44*56
15:08:04.672 -> $GNGLL,4531.85946,N,07336.78540,W,190806.00,A,A*69
15:08:05.004 -> $GNRMC,190807.00,A,4531.85948,N,07336.78543,W,0.031,,220719,,,A*71
15:08:05.071 -> $GNVTG,,T,,M,0.031,N,0.057,K,A*3D
15:08:05.104 -> $GNGGA,190807.00,4531.85948,N,07336.78543,W,1,12,0.82,67.6,M,-32.7,M,,*45
15:08:05.170 -> $GNGSA,A,3,02,25,12,19,17,05,09,06,23,,,,1.57,0.82,1.34*10
15:08:05.237 -> $GNGSA,A,3,84,69,68,85,83,75,76,,,,,,1.57,0.82,1.34*1B
15:08:05.303 -> $GPGSV,3,1,10,02,67,298,43,05,34,211,47,06,58,061,41,09,29,083,30*7D
15:08:05.369 -> $GPGSV,3,2,10,12,44,260,39,17,25,131,26,19,40,128,34,23,15,044,34*70
15:08:05.436 -> $GPGSV,3,3,10,25,27,306,42,29,03,309,17*7D
15:08:05.469 -> $GLGSV,3,1,10,68,39,043,43,69,61,127,32,70,17,183,,74,09,241,16*6E
15:08:05.569 -> $GLGSV,3,2,10,75,21,294,32,76,11,342,26,83,23,099,25,84,67,033,32*6B
15:08:05.635 -> $GLGSV,3,3,10,85,30,309,43,,,,44*57
15:08:05.669 -> $GNGLL,4531.85948,N,07336.78543,W,190807.00,A,A*65
15:08:06.001 -> $GNRMC,190808.00,A,4531.85952,N,07336.78542,W,0.038,,220719,,,A*7D
15:08:06.067 -> $GNVTG,,T,,M,0.038,N,0.070,K,A*31
15:08:06.101 -> $GNGGA,190808.00,4531.85952,N,07336.78542,W,1,12,0.82,67.9,M,-32.7,M,,*4F
15:08:06.167 -> $GNGSA,A,3,02,25,12,19,17,05,09,06,23,,,,1.57,0.82,1.34*10
15:08:06.234 -> $GNGSA,A,3,84,69,68,85,83,75,76,,,,,,1.57,0.82,1.34*1B
15:08:06.300 -> $GPGSV,3,1,10,02,67,298,44,05,34,211,46,06,58,061,41,09,29,083,30*7B
15:08:06.366 -> $GPGSV,3,2,10,12,44,260,38,17,25,131,25,19,40,128,33,23,15,044,34*75
15:08:06.433 -> $GPGSV,3,3,10,25,27,306,42,29,03,309,18*72
15:08:06.466 -> $GLGSV,3,1,10,68,39,043,44,69,61,127,36,70,17,183,,74,09,241,16*6D
15:08:06.566 -> $GLGSV,3,2,10,75,21,294,25,76,11,342,26,83,23,099,24,84,67,033,32*6C
15:08:06.632 -> $GLGSV,3,3,10,85,30,309,45,,,,44*51
15:08:06.665 -> $GNGLL,4531.85952,N,07336.78542,W,190808.00,A,A*60
15:08:06.997 -> $GNRMC,190809.00,A,4531.85953,N,07336.78543,W,0.031,,220719,,,A*75
15:08:07.064 -> $GNVTG,,T,,M,0.031,N,0.057,K,A*3D
15:08:07.097 -> $GNGGA,190809.00,4531.85953,N,07336.78543,W,1,12,0.84,68.1,M,-32.7,M,,*4F
15:08:07.163 -> $GNGSA,A,3,02,25,12,19,17,05,09,06,23,,,,1.65,0.84,1.42*16
15:08:07.230 -> $GNGSA,A,3,84,69,68,85,83,75,76,,,,,,1.65,0.84,1.42*1D
15:08:07.296 -> $GPGSV,3,1,10,02,67,298,44,05,34,211,46,06,58,061,41,09,29,083,34*7F
15:08:07.363 -> $GPGSV,3,2,10,12,44,260,38,17,25,131,22,19,40,128,33,23,15,044,34*72
15:08:07.429 -> $GPGSV,3,3,10,25,27,306,42,29,03,309,21*78
15:08:07.462 -> $GLGSV,3,1,09,68,39,043,45,69,61,127,35,70,17,183,,74,08,240,13*62
15:08:07.562 -> $GLGSV,3,2,09,75,21,294,25,76,11,342,25,83,23,099,25,84,67,033,33*67
15:08:07.629 -> $GLGSV,3,3,09,85,30,309,45*59
15:08:07.662 -> $GNGLL,4531.85953,N,07336.78543,W,190809.00,A,A*61
15:08:08.027 -> $GNRMC,190810.00,A,4531.85952,N,07336.78545,W,0.052,,220719,,,A*7F
15:08:08.094 -> $GNVTG,,T,,M,0.052,N,0.097,K,A*34
15:08:08.127 -> $GNGGA,190810.00,4531.85952,N,07336.78545,W,1,12,0.84,68.4,M,-32.7,M,,*45
15:08:08.193 -> $GNGSA,A,3,02,25,12,19,17,05,09,06,23,,,,1.65,0.84,1.42*16
15:08:08.260 -> $GNGSA,A,3,84,69,68,85,83,75,76,,,,,,1.65,0.84,1.42*1D
15:08:08.326 -> $GPGSV,3,1,10,02,67,298,43,05,34,211,47,06,58,061,42,09,29,083,34*7A
15:08:08.393 -> $GPGSV,3,2,10,12,44,260,39,17,25,131,21,19,40,128,34,23,15,044,34*77
15:08:08.459 -> $GPGSV,3,3,10,25,27,306,40,29,03,309,19*71
15:08:08.492 -> $GLGSV,3,1,10,68,39,043,44,69,61,127,29,70,17,183,,74,08,240,15*60
15:08:08.592 -> $GLGSV,3,2,10,75,21,293,35,76,11,342,24,83,23,099,25,84,67,033,34*6F
15:08:08.658 -> $GLGSV,3,3,10,85,30,309,42,,,,44*56
15:08:08.692 -> $GNGLL,4531.85952,N,07336.78545,W,190810.00,A,A*6E
15:08:09.024 -> $GNRMC,190811.00,A,4531.85951,N,07336.78544,W,0.108,,220719,,,A*72
15:08:09.090 -> $GNVTG,,T,,M,0.108,N,0.200,K,A*36
15:08:09.124 -> $GNGGA,190811.00,4531.85951,N,07336.78544,W,1,12,0.78,68.7,M,-32.7,M,,*46
15:08:09.190 -> $GNGSA,A,3,02,25,12,19,17,05,09,06,23,,,,1.51,0.78,1.29*1F
15:08:09.257 -> $GNGSA,A,3,84,69,68,85,83,75,76,,,,,,1.51,0.78,1.29*14
15:08:09.323 -> $GPGSV,3,1,10,02,67,298,40,05,34,211,47,06,58,061,44,09,29,083,33*78
15:08:09.390 -> $GPGSV,3,2,10,12,44,260,43,17,25,131,31,19,40,128,33,23,15,044,35*7D
15:08:09.456 -> $GPGSV,3,3,10,25,27,306,37,29,03,309,24*7F
15:08:09.489 -> $GLGSV,3,1,10,68,39,043,42,69,61,127,28,70,17,183,,74,08,240,16*64
15:08:09.589 -> $GLGSV,3,2,10,75,21,293,40,76,11,341,27,83,23,099,25,84,67,033,34*6D
15:08:09.655 -> $GLGSV,3,3,10,85,30,309,34,,,,44*57
15:08:09.689 -> $GNGLL,4531.85951,N,07336.78544,W,190811.00,A,A*6D
15:08:10.021 -> $GNRMC,190812.00,A,4531.85953,N,07336.78550,W,0.037,,220719,,,A*7B
15:08:10.087 -> $GNVTG,,T,,M,0.037,N,0.068,K,A*37
15:08:10.121 -> $GNGGA,190812.00,4531.85953,N,07336.78550,W,1,12,0.73,69.0,M,-32.7,M,,*4F
15:08:10.187 -> $GNGSA,A,3,02,25,12,19,17,05,09,06,23,,,,1.41,0.73,1.21*1D
15:08:10.254 -> $GNGSA,A,3,84,69,68,85,83,75,76,,,,,,1.41,0.73,1.21*16
15:08:10.320 -> $GPGSV,3,1,10,02,67,298,40,05,34,211,48,06,58,061,44,09,29,083,33*77
15:08:10.386 -> $GPGSV,3,2,10,12,44,260,46,17,25,131,33,19,40,128,33,23,15,044,34*7B
15:08:10.453 -> $GPGSV,3,3,10,25,27,306,37,29,03,309,27*7C
15:08:10.486 -> $GLGSV,3,1,10,68,39,043,40,69,61,127,34,70,17,183,,74,08,240,17*6A
15:08:10.586 -> $GLGSV,3,2,10,75,21,293,43,76,11,341,27,83,23,099,25,84,67,033,35*6F
15:08:10.652 -> $GLGSV,3,3,10,85,30,309,33,,,,42*56
15:08:10.685 -> $GNGLL,4531.85953,N,07336.78550,W,190812.00,A,A*69
15:08:11.018 -> $GNRMC,190813.00,A,4531.85957,N,07336.78560,W,0.028,,220719,,,A*73
15:08:11.084 -> $GNVTG,,T,,M,0.028,N,0.051,K,A*33
15:08:11.117 -> $GNGGA,190813.00,4531.85957,N,07336.78560,W,1,12,0.73,69.2,M,-32.7,M,,*4B
15:08:11.184 -> $GNGSA,A,3,02,25,12,19,17,05,09,06,23,,,,1.41,0.73,1.21*1D
15:08:11.250 -> $GNGSA,A,3,84,69,68,85,83,75,76,,,,,,1.41,0.73,1.21*16
15:08:11.316 -> $GPGSV,3,1,10,02,67,298,42,05,34,211,48,06,58,061,44,09,29,083,34*72
15:08:11.383 -> $GPGSV,3,2,10,12,44,260,46,17,25,131,32,19,40,128,33,23,15,044,33*7D
15:08:11.450 -> $GPGSV,3,3,10,25,27,306,37,29,03,309,27*7C
15:08:11.483 -> $GLGSV,3,1,10,68,39,043,40,69,61,127,37,70,17,183,,74,08,240,17*69
15:08:11.583 -> $GLGSV,3,2,10,75,21,293,41,76,11,341,26,83,23,099,25,84,67,033,34*6D
15:08:11.649 -> $GLGSV,3,3,10,85,30,309,33,,,,43*57
15:08:11.682 -> $GNGLL,4531.85957,N,07336.78560,W,190813.00,A,A*6F
15:08:12.015 -> $GNRMC,190814.00,A,4531.85960,N,07336.78566,W,0.030,,220719,,,A*7F
15:08:12.081 -> $GNVTG,,T,,M,0.030,N,0.056,K,A*3D
15:08:12.114 -> $GNGGA,190814.00,4531.85960,N,07336.78566,W,1,12,0.76,69.3,M,-32.7,M,,*4A
15:08:12.181 -> $GNGSA,A,3,02,25,12,19,17,05,09,06,23,,,,1.51,0.76,1.31*18
15:08:12.247 -> $GNGSA,A,3,84,69,68,85,83,75,76,,,,,,1.51,0.76,1.31*13
15:08:12.314 -> $GPGSV,3,1,10,02,67,298,43,05,34,211,49,06,58,061,44,09,29,083,34*72
15:08:12.380 -> $GPGSV,3,2,10,12,44,260,47,17,25,131,30,19,40,128,33,23,15,044,32*7F
15:08:12.446 -> $GPGSV,3,3,10,25,27,306,37,29,03,309,26*7D
15:08:12.480 -> $GLGSV,3,1,10,68,39,043,40,69,61,127,40,70,17,183,,74,08,240,16*68
15:08:12.579 -> $GLGSV,3,2,10,75,21,293,42,76,11,341,22,83,23,099,24,84,67,033,33*6C
15:08:12.646 -> $GLGSV,3,3,10,85,30,309,37,,,,43*53
15:08:12.679 -> $GNGLL,4531.85960,N,07336.78566,W,190814.00,A,A*6A
15:08:13.011 -> $GNRMC,190815.00,A,4531.85965,N,07336.78572,W,0.030,,220719,,,A*7E
15:08:13.078 -> $GNVTG,,T,,M,0.030,N,0.056,K,A*3D
15:08:13.111 -> $GNGGA,190815.00,4531.85965,N,07336.78572,W,1,12,0.76,69.3,M,-32.7,M,,*4B
15:08:13.178 -> $GNGSA,A,3,02,25,12,19,17,05,09,06,23,,,,1.51,0.76,1.31*18
15:08:13.244 -> $GNGSA,A,3,84,69,68,85,83,75,76,,,,,,1.51,0.76,1.31*13
15:08:13.310 -> $GPGSV,3,1,10,02,67,298,42,05,34,211,49,06,58,061,44,09,29,083,34*73
15:08:13.377 -> $GPGSV,3,2,10,12,44,260,47,17,25,131,30,19,40,128,33,23,15,044,33*7E
15:08:13.443 -> $GPGSV,3,3,10,25,27,306,37,29,03,309,27*7C
15:08:13.477 -> $GLGSV,3,1,10,68,39,043,40,69,61,127,40,70,17,183,,74,08,240,14*6A
15:08:13.576 -> $GLGSV,3,2,10,75,21,293,42,76,11,341,25,83,23,099,24,84,67,033,34*6C
15:08:13.643 -> $GLGSV,3,3,10,85,30,309,36,,,,43*52
15:08:13.676 -> $GNGLL,4531.85965,N,07336.78572,W,190815.00,A,A*6B
15:08:14.008 -> $GNRMC,190816.00,A,4531.85968,N,07336.78581,W,0.008,,220719,,,A*77
15:08:14.075 -> $GNVTG,,T,,M,0.008,N,0.015,K,A*31
15:08:14.108 -> $GNGGA,190816.00,4531.85968,N,07336.78581,W,1,12,0.71,69.4,M,-32.7,M,,*49
15:08:14.174 -> $GNGSA,A,3,02,25,12,19,17,05,09,06,23,,,,1.36,0.71,1.16*1B
15:08:14.241 -> $GNGSA,A,3,84,69,68,85,83,75,76,,,,,,1.36,0.71,1.16*10
15:08:14.307 -> $GPGSV,3,1,10,02,67,298,42,05,34,211,48,06,58,061,44,09,29,083,34*72
15:08:14.374 -> $GPGSV,3,2,10,12,44,260,47,17,25,131,30,19,40,128,33,23,15,044,33*7E
15:08:14.440 -> $GPGSV,3,3,10,25,27,306,37,29,03,309,27*7C
15:08:14.473 -> $GLGSV,3,1,10,68,39,043,40,69,61,127,38,70,17,183,,74,08,240,13*62
15:08:14.573 -> $GLGSV,3,2,10,75,21,293,42,76,11,341,26,83,23,099,23,84,67,033,34*68
15:08:14.639 -> $GLGSV,3,3,10,85,30,309,35,,,,43*51
15:08:14.673 -> $GNGLL,4531.85968,N,07336.78581,W,190816.00,A,A*69
15:08:15.005 -> $GNRMC,190817.00,A,4531.85971,N,07336.78585,W,0.029,,220719,,,A*79
15:08:15.072 -> $GNVTG,,T,,M,0.029,N,0.053,K,A*30
15:08:15.105 -> $GNGGA,190817.00,4531.85971,N,07336.78585,W,1,12,0.73,69.5,M,-32.7,M,,*47
15:08:15.171 -> $GNGSA,A,3,02,25,12,19,17,05,09,06,23,,,,1.38,0.73,1.17*16
15:08:15.238 -> $GNGSA,A,3,84,69,68,85,83,75,76,,,,,,1.38,0.73,1.17*1D
15:08:15.304 -> $GPGSV,3,1,10,02,67,298,42,05,34,211,49,06,58,061,43,09,29,083,35*75
15:08:15.370 -> $GPGSV,3,2,10,12,44,260,46,17,25,131,30,19,40,128,33,23,15,044,32*7E
15:08:15.437 -> $GPGSV,3,3,10,25,27,306,37,29,03,309,25*7E
15:08:15.470 -> $GLGSV,3,1,10,68,39,043,39,69,61,127,38,70,17,183,,74,08,240,10*6F
15:08:15.570 -> $GLGSV,3,2,10,75,21,293,42,76,11,341,26,83,23,099,23,84,67,033,34*68
15:08:15.636 -> $GLGSV,3,3,10,85,30,309,35,,,,42*50
15:08:15.669 -> $GNGLL,4531.85971,N,07336.78585,W,190817.00,A,A*64
15:08:16.002 -> $GNRMC,190818.00,A,4531.85975,N,07336.78586,W,0.030,,220719,,,A*79
15:08:16.068 -> $GNVTG,,T,,M,0.030,N,0.055,K,A*3E
15:08:16.101 -> $GNGGA,190818.00,4531.85975,N,07336.78586,W,1,12,0.75,69.4,M,-32.7,M,,*48
15:08:16.167 -> $GNGSA,A,3,02,25,12,19,17,05,09,06,23,,,,1.43,0.75,1.22*1A
15:08:16.234 -> $GNGSA,A,3,84,69,68,85,83,75,76,,,,,,1.43,0.75,1.22*11
15:08:16.300 -> $GPGSV,3,1,10,02,67,298,42,05,34,211,49,06,58,061,43,09,29,083,35*75
15:08:16.367 -> $GPGSV,3,2,10,12,44,260,46,17,25,131,28,19,40,128,33,23,15,044,33*76
15:08:16.433 -> $GPGSV,3,3,10,25,27,306,38,29,03,309,25*71
15:08:16.467 -> $GLGSV,3,1,10,68,39,043,41,69,61,127,39,70,17,183,,74,08,240,13*62
15:08:16.566 -> $GLGSV,3,2,10,75,21,293,43,76,11,341,25,83,22,100,22,84,67,033,33*6C
15:08:16.633 -> $GLGSV,3,3,10,85,30,309,35,,,,44*56
15:08:16.666 -> $GNGLL,4531.85975,N,07336.78586,W,190818.00,A,A*6C
15:08:17.031 -> $GNRMC,190819.00,A,4531.85980,N,07336.78587,W,0.020,,220719,,,A*72
15:08:17.098 -> $GNVTG,,T,,M,0.020,N,0.038,K,A*34
15:08:17.131 -> $GNGGA,190819.00,4531.85980,N,07336.78587,W,1,12,0.71,69.4,M,-32.7,M,,*46
15:08:17.197 -> $GNGSA,A,3,02,25,12,19,17,05,09,06,23,,,,1.36,0.71,1.16*1B
15:08:17.264 -> $GNGSA,A,3,84,69,68,85,83,75,76,,,,,,1.36,0.71,1.16*10
15:08:17.330 -> $GPGSV,3,1,10,02,67,298,42,05,34,211,49,06,58,061,43,09,29,083,34*74
15:08:17.397 -> $GPGSV,3,2,10,12,44,260,46,17,25,131,26,19,40,128,34,23,15,044,33*7F
15:08:17.463 -> $GPGSV,3,3,10,25,27,306,38,29,03,309,24*70
15:08:17.496 -> $GLGSV,3,1,10,68,39,043,40,69,61,127,39,70,17,183,,74,08,240,12*62
15:08:17.596 -> $GLGSV,3,2,10,75,21,293,42,76,11,341,26,83,22,100,22,84,67,034,34*6E
15:08:17.663 -> $GLGSV,3,3,10,85,30,309,37,,,,43*53
15:08:17.696 -> $GNGLL,4531.85980,N,07336.78587,W,190819.00,A,A*66
15:08:17.995 -> $GNRMC,190820.00,A,4531.85985,N,07336.78588,W,0.042,,220719,,,A*76
15:08:18.061 -> $GNVTG,,T,,M,0.042,N,0.077,K,A*3B
15:08:18.095 -> $GNGGA,190820.00,4531.85985,N,07336.78588,W,1,12,0.82,69.3,M,-32.7,M,,*4D
15:08:18.161 -> $GNGSA,A,3,02,25,12,19,17,05,09,06,23,,,,1.57,0.82,1.34*10
15:08:18.228 -> $GNGSA,A,3,84,69,68,85,83,75,76,,,,,,1.57,0.82,1.34*1B
15:08:18.294 -> $GPGSV,3,1,10,02,67,298,42,05,34,211,49,06,58,061,43,09,29,083,34*74
15:08:18.360 -> $GPGSV,3,2,10,12,44,260,46,17,25,131,25,19,40,128,34,23,15,044,33*7C
15:08:18.428 -> $GPGSV,3,3,10,25,27,306,38,29,03,309,24*70
15:08:18.461 -> $GLGSV,3,1,10,68,39,043,40,69,61,127,39,70,17,183,,74,08,240,09*68
15:08:18.561 -> $GLGSV,3,2,10,75,21,293,43,76,11,341,32,83,22,100,22,84,67,034,34*6A
15:08:18.627 -> $GLGSV,3,3,10,85,31,310,36,,,,42*5A
15:08:18.661 -> $GNGLL,4531.85985,N,07336.78588,W,190820.00,A,A*66
15:08:19.026 -> $GNRMC,190821.00,A,4531.85990,N,07336.78593,W,0.041,,220719,,,A*7A
15:08:19.093 -> $GNVTG,,T,,M,0.041,N,0.076,K,A*39
15:08:19.126 -> $GNGGA,190821.00,4531.85990,N,07336.78593,W,1,12,0.82,69.3,M,-32.7,M,,*42
15:08:19.192 -> $GNGSA,A,3,02,25,12,19,17,05,09,06,23,,,,1.57,0.82,1.34*10
15:08:19.259 -> $GNGSA,A,3,84,69,68,85,83,75,76,,,,,,1.57,0.82,1.34*1B
15:08:19.325 -> $GPGSV,3,1,10,02,67,298,42,05,34,211,49,06,58,061,43,09,29,083,33*73
15:08:19.391 -> $GPGSV,3,2,10,12,44,260,46,17,25,131,26,19,40,128,34,23,15,044,34*78
15:08:19.458 -> $GPGSV,3,3,10,25,27,306,37,29,03,309,24*7F
15:08:19.491 -> $GLGSV,3,1,10,68,39,043,40,69,61,127,39,70,17,183,,74,08,240,09*68
15:08:19.591 -> $GLGSV,3,2,10,75,21,293,43,76,11,341,32,83,22,100,23,84,67,034,33*6C
15:08:19.657 -> $GLGSV,3,3,10,85,31,310,36,,,,42*5A
15:08:19.690 -> $GNGLL,4531.85990,N,07336.78593,W,190821.00,A,A*69
15:08:20.023 -> $GNRMC,190822.00,A,4531.85994,N,07336.78597,W,0.034,,220719,,,A*7B
15:08:20.089 -> $GNVTG,,T,,M,0.034,N,0.063,K,A*3F
15:08:20.122 -> $GNGGA,190822.00,4531.85994,N,07336.78597,W,1,12,0.86,69.3,M,-32.7,M,,*45
15:08:20.189 -> $GNGSA,A,3,02,25,12,19,17,05,09,06,23,,,,1.69,0.86,1.46*1C
15:08:20.255 -> $GNGSA,A,3,84,69,68,85,83,75,76,,,,,,1.69,0.86,1.46*17
15:08:20.322 -> $GPGSV,3,1,10,02,67,298,41,05,34,211,49,06,58,061,43,09,29,083,34*77
15:08:20.388 -> $GPGSV,3,2,10,12,44,260,46,17,25,131,25,19,40,128,34,23,15,044,34*7B
15:08:20.455 -> $GPGSV,3,3,10,25,27,306,38,29,03,309,24*70
15:08:20.488 -> $GLGSV,3,1,10,68,39,043,40,69,61,127,36,70,17,183,,74,08,240,09*67
15:08:20.588 -> $GLGSV,3,2,10,75,21,293,42,76,11,341,31,83,22,100,22,84,67,034,33*6F
15:08:20.654 -> $GLGSV,3,3,10,85,31,310,36,,,,42*5A
15:08:20.688 -> $GNGLL,4531.85994,N,07336.78597,W,190822.00,A,A*6A
15:08:21.020 -> $GNRMC,190823.00,A,4531.85998,N,07336.78604,W,0.021,,220719,,,A*7B
15:08:21.086 -> $GNVTG,,T,,M,0.021,N,0.038,K,A*35
15:08:21.120 -> $GNGGA,190823.00,4531.85998,N,07336.78604,W,1,12,0.77,69.5,M,-32.7,M,,*49
15:08:21.186 -> $GNGSA,A,3,02,25,12,19,17,05,09,06,23,,,,1.45,0.77,1.23*1F
15:08:21.252 -> $GNGSA,A,3,84,69,68,85,83,75,76,,,,,,1.45,0.77,1.23*14
15:08:21.319 -> $GPGSV,3,1,10,02,67,298,41,05,34,211,50,06,58,061,42,09,29,083,35*7F
15:08:21.385 -> $GPGSV,3,2,10,12,44,260,42,17,25,131,23,19,40,128,34,23,15,044,33*7E
15:08:21.452 -> $GPGSV,3,3,10,25,27,306,38,29,03,309,24*70
15:08:21.485 -> $GLGSV,3,1,10,68,39,043,41,69,61,127,36,70,17,183,,74,08,240,09*66
15:08:21.585 -> $GLGSV,3,2,10,75,21,293,43,76,11,341,30,83,22,100,21,84,67,034,33*6C
15:08:21.651 -> $GLGSV,3,3,10,85,31,310,32,,,,41*5D
15:08:21.684 -> $GNGLL,4531.85998,N,07336.78604,W,190823.00,A,A*6E
15:08:22.017 -> $GNRMC,190824.00,A,4531.85999,N,07336.78602,W,0.084,,220719,,,A*74
15:08:22.083 -> $GNVTG,,T,,M,0.084,N,0.155,K,A*30
15:08:22.116 -> $GNGGA,190824.00,4531.85999,N,07336.78602,W,1,12,0.79,69.5,M,-32.7,M,,*47
15:08:22.183 -> $GNGSA,A,3,02,25,12,19,17,05,09,06,23,,,,1.48,0.79,1.25*1A
15:08:22.249 -> $GNGSA,A,3,84,69,68,85,83,75,76,,,,,,1.48,0.79,1.25*11
15:08:22.316 -> $GPGSV,3,1,10,02,67,298,40,05,34,211,49,06,58,061,41,09,29,083,35*75
15:08:22.382 -> $GPGSV,3,2,10,12,44,260,45,17,25,131,25,19,40,128,29,23,15,044,34*74
15:08:22.449 -> $GPGSV,3,3,10,25,27,306,38,29,03,309,24*70
15:08:22.482 -> $GLGSV,3,1,10,68,39,043,39,69,61,127,34,70,17,183,,74,08,240,12*61
15:08:22.582 -> $GLGSV,3,2,10,75,21,293,44,76,11,341,29,83,22,100,19,84,67,034,33*68
15:08:22.648 -> $GLGSV,3,3,10,85,31,310,37,,,,41*58
15:08:22.681 -> $GNGLL,4531.85999,N,07336.78602,W,190824.00,A,A*6E
15:08:23.014 -> $GNRMC,190825.00,A,4531.85999,N,07336.78601,W,0.032,,220719,,,A*7B
15:08:23.080 -> $GNVTG,,T,,M,0.032,N,0.060,K,A*3A
15:08:23.113 -> $GNGGA,190825.00,4531.85999,N,07336.78601,W,1,12,0.71,69.6,M,-32.7,M,,*4E
15:08:23.180 -> $GNGSA,A,3,02,25,12,19,17,05,09,06,23,,,,1.36,0.71,1.16*1B
15:08:23.246 -> $GNGSA,A,3,84,69,68,85,83,75,76,,,,,,1.36,0.71,1.16*10
15:08:23.313 -> $GPGSV,3,1,10,02,67,298,39,05,34,211,49,06,58,061,41,09,29,083,32*7C
15:08:23.379 -> $GPGSV,3,2,10,12,44,260,43,17,25,131,30,19,40,128,33,23,15,044,33*7A
15:08:23.445 -> $GPGSV,3,3,10,25,27,306,38,29,03,309,32*77
15:08:23.478 -> $GLGSV,3,1,10,68,39,043,39,69,61,127,32,70,17,183,,74,08,240,14*61
15:08:23.578 -> $GLGSV,3,2,10,75,21,293,44,76,11,341,22,83,22,100,18,84,67,034,34*65
15:08:23.645 -> $GLGSV,3,3,10,85,31,310,37,,,,40*59
15:08:23.678 -> $GNGLL,4531.85999,N,07336.78601,W,190825.00,A,A*6C
15:08:24.010 -> $GNRMC,190826.00,A,4531.86000,N,07336.78598,W,0.050,,220719,,,A*75
15:08:24.077 -> $GNVTG,,T,,M,0.050,N,0.092,K,A*33
15:08:24.110 -> $GNGGA,190826.00,4531.86000,N,07336.78598,W,1,12,0.81,69.6,M,-32.7,M,,*4B
15:08:24.176 -> $GNGSA,A,3,02,25,12,19,17,05,09,06,23,,,,1.59,0.81,1.37*1E
15:08:24.243 -> $GNGSA,A,3,84,69,68,85,83,75,76,,,,,,1.59,0.81,1.37*15
15:08:24.309 -> $GPGSV,3,1,10,02,67,298,40,05,34,211,50,06,58,061,41,09,29,083,34*7C
15:08:24.376 -> $GPGSV,3,2,10,12,44,260,45,17,25,131,20,19,40,128,33,23,15,044,32*7C
15:08:24.442 -> $GPGSV,3,3,10,25,27,306,38,29,03,309,25*71
15:08:24.475 -> $GLGSV,3,1,10,68,39,043,40,69,61,127,35,70,17,183,,74,08,240,12*6E
15:08:24.575 -> $GLGSV,3,2,10,75,21,293,43,76,11,341,22,83,22,100,18,84,67,034,34*62
15:08:24.641 -> $GLGSV,3,3,10,85,31,310,34,,,,40*5A
15:08:24.674 -> $GNGLL,4531.86000,N,07336.78598,W,190826.00,A,A*66
15:08:25.007 -> $GNRMC,190827.00,A,4531.86000,N,07336.78594,W,0.028,,220719,,,A*77
15:08:25.073 -> $GNVTG,,T,,M,0.028,N,0.052,K,A*30
15:08:25.106 -> $GNGGA,190827.00,4531.86000,N,07336.78594,W,1,12,0.71,69.7,M,-32.7,M,,*48
15:08:25.173 -> $GNGSA,A,3,02,25,12,19,17,05,09,06,23,,,,1.36,0.71,1.16*1B
15:08:25.239 -> $GNGSA,A,3,84,69,68,85,83,75,76,,,,,,1.36,0.71,1.16*10
15:08:25.306 -> $GPGSV,3,1,10,02,67,298,42,05,35,211,50,06,58,061,41,09,29,083,31*7A
15:08:25.372 -> $GPGSV,3,2,10,12,44,260,45,17,25,131,21,19,40,128,33,23,15,044,32*7D
15:08:25.438 -> $GPGSV,3,3,10,25,27,306,39,29,03,309,27*72
15:08:25.471 -> $GLGSV,3,1,10,68,39,043,39,69,61,127,35,70,17,183,,74,08,240,09*6A
15:08:25.571 -> $GLGSV,3,2,10,75,21,293,44,76,11,341,25,83,22,100,18,84,67,034,33*65
15:08:25.638 -> $GLGSV,3,3,10,85,31,310,38,,,,41*57
15:08:25.671 -> $GNGLL,4531.86000,N,07336.78594,W,190827.00,A,A*6B
15:08:26.003 -> $GNRMC,190828.00,A,4531.85999,N,07336.78590,W,0.032,,220719,,,A*7D
15:08:26.070 -> $GNVTG,,T,,M,0.032,N,0.060,K,A*3A
15:08:26.103 -> $GNGGA,190828.00,4531.85999,N,07336.78590,W,1,12,0.74,69.8,M,-32.7,M,,*43
15:08:26.169 -> $GNGSA,A,3,02,25,12,19,17,05,09,06,23,,,,1.45,0.74,1.25*1A
15:08:26.236 -> $GNGSA,A,3,84,69,68,85,83,75,76,,,,,,1.45,0.74,1.25*11
15:08:26.302 -> $GPGSV,3,1,10,02,67,298,42,05,35,211,50,06,58,062,41,09,29,083,31*79
15:08:26.368 -> $GPGSV,3,2,10,12,44,260,43,17,25,131,20,19,40,128,33,23,15,044,33*7B
15:08:26.435 -> $GPGSV,3,3,10,25,27,306,39,29,03,309,27*72
15:08:26.468 -> $GLGSV,3,1,10,68,39,043,41,69,61,127,37,70,17,183,,74,08,240,10*6F
15:08:26.568 -> $GLGSV,3,2,10,75,21,293,43,76,11,341,26,83,22,100,17,84,67,034,34*69
15:08:26.634 -> $GLGSV,3,3,10,85,31,310,37,,,,42*5B
15:08:26.668 -> $GNGLL,4531.85999,N,07336.78590,W,190828.00,A,A*6A
15:08:27.000 -> $GNRMC,190829.00,A,4531.85998,N,07336.78586,W,0.046,,220719,,,A*79
15:08:27.066 -> $GNVTG,,T,,M,0.046,N,0.086,K,A*31
15:08:27.099 -> $GNGGA,190829.00,4531.85998,N,07336.78586,W,1,12,0.83,69.8,M,-32.7,M,,*4C
15:08:27.166 -> $GNGSA,A,3,02,25,12,19,17,05,09,06,23,,,,1.71,0.83,1.49*1F
15:08:27.232 -> $GNGSA,A,3,84,69,68,85,83,75,76,,,,,,1.71,0.83,1.49*14
15:08:27.299 -> $GPGSV,3,1,10,02,67,298,42,05,35,211,49,06,58,062,42,09,29,083,30*73
15:08:27.365 -> $GPGSV,3,2,10,12,44,260,44,17,25,131,23,19,40,128,34,23,15,044,33*78
15:08:27.432 -> $GPGSV,3,3,10,25,27,306,39,29,03,309,25*70
15:08:27.465 -> $GLGSV,3,1,10,68,39,043,42,69,61,127,38,70,17,183,,74,08,240,08*6A
15:08:27.565 -> $GLGSV,3,2,10,75,21,293,42,76,11,341,24,83,22,100,16,84,67,034,33*6C
15:08:27.631 -> $GLGSV,3,3,10,85,31,310,38,,,,44*52
15:08:27.664 -> $GNGLL,4531.85998,N,07336.78586,W,190829.00,A,A*6D
15:08:28.030 -> $GNRMC,190830.00,A,4531.85996,N,07336.78587,W,0.009,,220719,,,A*75
15:08:28.096 -> $GNVTG,,T,,M,0.009,N,0.017,K,A*32
15:08:28.130 -> $GNGGA,190830.00,4531.85996,N,07336.78587,W,1,12,0.73,69.9,M,-32.7,M,,*45
15:08:28.196 -> $GNGSA,A,3,02,25,12,19,17,05,09,06,23,,,,1.41,0.73,1.21*1D
15:08:28.262 -> $GNGSA,A,3,84,69,68,85,83,75,76,,,,,,1.41,0.73,1.21*16
15:08:28.329 -> $GPGSV,3,1,10,02,67,298,42,05,35,211,49,06,58,062,42,09,29,083,31*72
15:08:28.395 -> $GPGSV,3,2,10,12,44,260,44,17,25,131,26,19,40,128,34,23,15,044,33*7D
15:08:28.462 -> $GPGSV,3,3,10,25,27,306,39,29,03,309,24*71
15:08:28.495 -> $GLGSV,3,1,10,68,39,043,43,69,61,127,38,70,17,183,,74,08,240,09*6A
15:08:28.595 -> $GLGSV,3,2,10,75,21,293,42,76,11,341,31,83,22,100,16,84,67,034,33*68
15:08:28.661 -> $GLGSV,3,3,10,85,31,310,36,,,,44*5C
15:08:28.694 -> $GNGLL,4531.85996,N,07336.78587,W,190830.00,A,A*6A
15:08:29.027 -> $GNRMC,190831.00,A,4531.85995,N,07336.78589,W,0.034,,220719,,,A*77
15:08:29.093 -> $GNVTG,,T,,M,0.034,N,0.064,K,A*38
15:08:29.126 -> $GNGGA,190831.00,4531.85995,N,07336.78589,W,1,12,0.76,70.0,M,-32.7,M,,*4D
15:08:29.193 -> $GNGSA,A,3,02,25,12,19,17,05,09,06,23,,,,1.51,0.76,1.31*18
15:08:29.259 -> $GNGSA,A,3,84,69,68,85,83,75,76,,,,,,1.51,0.76,1.31*13
15:08:29.326 -> $GPGSV,3,1,10,02,67,298,40,05,35,211,50,06,58,062,42,09,29,082,35*7D
15:08:29.392 -> $GPGSV,3,2,10,12,44,260,41,17,25,131,28,19,40,128,34,23,15,044,33*76
15:08:29.459 -> $GPGSV,3,3,10,25,27,306,39,29,03,309,25*70
15:08:29.492 -> $GLGSV,3,1,10,68,39,043,43,69,61,127,38,70,17,183,,74,08,240,10*62
15:08:29.592 -> $GLGSV,3,2,10,75,21,293,43,76,11,341,35,83,22,100,14,84,67,034,33*6F
15:08:29.658 -> $GLGSV,3,3,10,85,31,310,32,,,,44*58
15:08:29.691 -> $GNGLL,4531.85995,N,07336.78589,W,190831.00,A,A*66
15:08:30.023 -> $GNRMC,190832.00,A,4531.85995,N,07336.78591,W,0.005,,220719,,,A*7F
15:08:30.090 -> $GNVTG,,T,,M,0.005,N,0.009,K,A*31
15:08:30.123 -> $GNGGA,190832.00,4531.85995,N,07336.78591,W,1,12,0.80,70.0,M,-32.7,M,,*4E
15:08:30.189 -> $GNGSA,A,3,02,25,12,19,17,05,09,06,23,,,,1.53,0.80,1.30*12
15:08:30.256 -> $GNGSA,A,3,84,69,68,85,83,75,76,,,,,,1.53,0.80,1.30*19
15:08:30.322 -> $GPGSV,3,1,10,02,67,298,39,05,35,211,50,06,58,062,41,09,29,082,35*70
15:08:30.389 -> $GPGSV,3,2,10,12,44,260,41,17,25,131,25,19,40,128,33,23,15,044,32*7D
15:08:30.455 -> $GPGSV,3,3,10,25,27,306,35,29,03,309,25*7C
15:08:30.488 -> $GLGSV,3,1,10,68,39,043,42,69,61,127,38,70,17,183,,74,08,240,10*63
15:08:30.588 -> $GLGSV,3,2,10,75,21,293,45,76,11,341,35,83,22,100,15,84,67,034,33*68
15:08:30.654 -> $GLGSV,3,3,10,85,31,310,40,,,,43*5A
15:08:30.688 -> $GNGLL,4531.85995,N,07336.78591,W,190832.00,A,A*6C
15:08:31.020 -> $GNRMC,190833.00,A,4531.85995,N,07336.78595,W,0.006,,220719,,,A*79
15:08:31.086 -> $GNVTG,,T,,M,0.006,N,0.012,K,A*38
15:08:31.120 -> $GNGGA,190833.00,4531.85995,N,07336.78595,W,1,12,0.77,70.1,M,-32.7,M,,*42
15:08:31.186 -> $GNGSA,A,3,02,25,12,19,17,05,09,06,23,,,,1.45,0.77,1.23*1F
15:08:31.253 -> $GNGSA,A,3,84,69,68,85,83,75,76,,,,,,1.45,0.77,1.23*14
15:08:31.319 -> $GPGSV,3,1,10,02,67,298,39,05,35,211,50,06,58,062,42,09,29,082,35*73
15:08:31.385 -> $GPGSV,3,2,10,12,44,260,38,17,25,131,23,19,40,128,30,23,15,044,33*77
15:08:31.452 -> $GPGSV,3,3,10,25,27,306,33,29,03,309,26*79
15:08:31.485 -> $GLGSV,3,1,10,68,39,043,42,69,61,127,36,70,17,183,,74,08,240,16*6B
15:08:31.584 -> $GLGSV,3,2,10,75,21,293,45,76,11,341,37,83,22,100,18,84,67,034,34*60
15:08:31.650 -> $GLGSV,3,3,10,85,31,310,41,,,,41*59
15:08:31.684 -> $GNGLL,4531.85995,N,07336.78595,W,190833.00,A,A*69
15:08:32.015 -> $GNRMC,190834.00,A,4531.85994,N,07336.78597,W,0.060,,220719,,,A*7D
15:08:32.082 -> $GNVTG,,T,,M,0.060,N,0.110,K,A*3B
15:08:32.115 -> $GNGGA,190834.00,4531.85994,N,07336.78597,W,1,12,0.80,70.2,M,-32.7,M,,*4D
15:08:32.181 -> $GNGSA,A,3,02,25,12,19,17,05,09,06,23,,,,1.53,0.80,1.30*12
15:08:32.248 -> $GNGSA,A,3,84,69,68,85,83,75,76,,,,,,1.53,0.80,1.30*19
15:08:32.314 -> $GPGSV,3,1,10,02,67,298,40,05,35,211,49,06,58,062,42,09,29,082,33*73
15:08:32.381 -> $GPGSV,3,2,10,12,43,260,40,17,25,131,19,19,40,128,32,23,15,044,33*74
15:08:32.447 -> $GPGSV,3,3,10,25,27,306,37,29,03,309,28*73
15:08:32.480 -> $GLGSV,3,1,10,68,39,043,41,69,61,127,36,70,17,183,,74,08,240,17*69
15:08:32.580 -> $GLGSV,3,2,10,75,21,293,42,76,11,341,34,83,22,100,17,84,67,034,33*6C
15:08:32.647 -> $GLGSV,3,3,10,85,31,310,38,,,,41*57
15:08:32.680 -> $GNGLL,4531.85994,N,07336.78597,W,190834.00,A,A*6D
15:08:33.012 -> $GNRMC,190835.00,A,4531.85994,N,07336.78603,W,0.024,,220719,,,A*72
15:08:33.079 -> $GNVTG,,T,,M,0.024,N,0.044,K,A*3B
15:08:33.112 -> $GNGGA,190835.00,4531.85994,N,07336.78603,W,1,12,0.84,70.3,M,-32.7,M,,*47
15:08:33.178 -> $GNGSA,A,3,02,25,12,19,17,05,09,06,23,,,,1.65,0.84,1.42*16
15:08:33.245 -> $GNGSA,A,3,84,69,68,85,83,75,76,,,,,,1.65,0.84,1.42*1D
15:08:33.311 -> $GPGSV,3,1,10,02,67,298,40,05,35,211,48,06,58,062,43,09,29,082,32*72
15:08:33.378 -> $GPGSV,3,2,10,12,43,260,40,17,25,131,20,19,40,128,32,23,15,044,34*79
15:08:33.444 -> $GPGSV,3,3,10,25,27,306,37,29,03,309,28*73
15:08:33.477 -> $GLGSV,3,1,10,68,39,043,43,69,61,127,36,70,17,183,,74,08,240,16*6A
15:08:33.577 -> $GLGSV,3,2,10,75,21,293,42,76,11,341,34,83,22,100,16,84,67,034,32*6C
15:08:33.643 -> $GLGSV,3,3,10,85,31,310,38,,,,43*55
15:08:33.677 -> $GNGLL,4531.85994,N,07336.78603,W,190835.00,A,A*62
15:08:34.009 -> $GNRMC,190836.00,A,4531.85993,N,07336.78610,W,0.091,,220719,,,A*7A
15:08:34.075 -> $GNVTG,,T,,M,0.091,N,0.169,K,A*3B
15:08:34.108 -> $GNGGA,190836.00,4531.85993,N,07336.78610,W,1,12,0.86,70.4,M,-32.7,M,,*44
15:08:34.175 -> $GNGSA,A,3,02,25,12,19,17,05,09,06,23,,,,1.69,0.86,1.46*1C
15:08:34.241 -> $GNGSA,A,3,84,69,68,85,83,75,76,,,,,,1.69,0.86,1.46*17
15:08:34.308 -> $GPGSV,3,1,10,02,67,298,40,05,35,211,49,06,58,062,43,09,29,082,32*73
15:08:34.374 -> $GPGSV,3,2,10,12,43,260,42,17,25,131,23,19,40,128,32,23,15,044,35*79
15:08:34.441 -> $GPGSV,3,3,10,25,27,306,37,29,03,309,27*7C
15:08:34.474 -> $GLGSV,3,1,10,68,39,043,42,69,61,127,36,70,17,183,,74,08,240,15*68
15:08:34.574 -> $GLGSV,3,2,10,75,21,293,42,76,11,341,35,83,22,100,08,84,67,034,32*62
15:08:34.640 -> $GLGSV,3,3,10,85,31,310,38,,,,43*55
15:08:34.673 -> $GNGLL,4531.85993,N,07336.78610,W,190836.00,A,A*64
15:08:35.006 -> $GNRMC,190837.00,A,4531.85993,N,07336.78618,W,0.019,,220719,,,A*73
15:08:35.072 -> $GNVTG,,T,,M,0.019,N,0.036,K,A*30
15:08:35.105 -> $GNGGA,190837.00,4531.85993,N,07336.78618,W,1,12,0.78,70.6,M,-32.7,M,,*4E
15:08:35.172 -> $GNGSA,A,3,02,25,12,19,17,05,09,06,23,,,,1.51,0.78,1.29*1F
15:08:35.238 -> $GNGSA,A,3,84,69,68,85,83,75,76,,,,,,1.51,0.78,1.29*14
15:08:35.304 -> $GPGSV,3,1,10,02,67,298,42,05,35,211,49,06,58,062,43,09,29,082,31*72
15:08:35.371 -> $GPGSV,3,2,10,12,43,260,43,17,25,131,31,19,40,128,34,23,15,044,31*79
15:08:35.437 -> $GPGSV,3,3,10,25,27,306,38,29,03,309,26*72
15:08:35.471 -> $GLGSV,3,1,10,68,39,043,42,69,61,127,38,70,17,183,,74,08,240,14*67
15:08:35.570 -> $GLGSV,3,2,10,75,21,293,40,76,11,341,36,83,22,100,12,84,67,034,31*6B
15:08:35.637 -> $GLGSV,3,3,10,85,31,310,37,,,,43*5A
15:08:35.670 -> $GNGLL,4531.85993,N,07336.78618,W,190837.00,A,A*6D
15:08:36.002 -> $GNRMC,190838.00,A,4531.85989,N,07336.78623,W,0.095,,220719,,,A*7B
15:08:36.069 -> $GNVTG,,T,,M,0.095,N,0.176,K,A*31
15:08:36.102 -> $GNGGA,190838.00,4531.85989,N,07336.78623,W,1,12,0.75,70.7,M,-32.7,M,,*4E
15:08:36.168 -> $GNGSA,A,3,02,25,12,19,17,05,09,06,23,,,,1.43,0.75,1.21*19
15:08:36.235 -> $GNGSA,A,3,84,69,68,85,83,75,76,,,,,,1.43,0.75,1.21*12
15:08:36.301 -> $GPGSV,3,1,10,02,67,298,37,05,35,211,49,06,58,062,45,09,29,082,35*72
15:08:36.368 -> $GPGSV,3,2,10,12,43,260,45,17,25,131,26,19,40,128,31,23,15,044,34*79
15:08:36.434 -> $GPGSV,3,3,10,25,27,306,38,29,03,309,26*72
15:08:36.467 -> $GLGSV,3,1,10,68,39,043,41,69,61,127,32,70,17,183,,74,08,240,13*69
15:08:36.567 -> $GLGSV,3,2,10,75,21,293,41,76,11,341,36,83,22,100,12,84,67,034,33*68
15:08:36.633 -> $GLGSV,3,3,10,85,31,310,37,,,,43*5A
15:08:36.667 -> $GNGLL,4531.85989,N,07336.78623,W,190838.00,A,A*61
15:08:36.999 -> $GNRMC,190839.00,A,4531.85992,N,07336.78626,W,0.220,,220719,,,A*79
15:08:37.065 -> $GNVTG,,T,,M,0.220,N,0.408,K,A*31
15:08:37.099 -> $GNGGA,190839.00,4531.85992,N,07336.78626,W,1,12,0.81,70.7,M,-32.7,M,,*4B
15:08:37.165 -> $GNGSA,A,3,02,25,12,19,17,05,09,06,23,,,,1.59,0.81,1.37*1E
15:08:37.231 -> $GNGSA,A,3,84,69,68,85,83,75,76,,,,,,1.59,0.81,1.37*15
15:08:37.298 -> $GPGSV,3,1,10,02,67,298,37,05,35,211,49,06,58,062,45,09,29,082,34*73
15:08:37.364 -> $GPGSV,3,2,10,12,43,260,50,17,24,131,31,19,40,128,30,23,15,044,32*7D
15:08:37.431 -> $GPGSV,3,3,10,25,27,306,38,29,03,309,26*72
15:08:37.464 -> $GLGSV,3,1,10,68,39,043,40,69,61,127,28,70,17,183,,74,08,240,17*67
15:08:37.564 -> $GLGSV,3,2,10,75,21,293,38,76,11,341,33,83,22,100,20,84,67,034,36*67
15:08:37.630 -> $GLGSV,3,3,10,85,31,310,41,90,,,44*55
15:08:37.663 -> $GNGLL,4531.85992,N,07336.78626,W,190839.00,A,A*6F
15:08:38.029 -> $GNRMC,190840.00,A,4531.85992,N,07336.78626,W,0.066,,220719,,,A*77
15:08:38.095 -> $GNVTG,,T,,M,0.066,N,0.123,K,A*3D
15:08:38.128 -> $GNGGA,190840.00,4531.85992,N,07336.78626,W,1,12,0.75,70.7,M,-32.7,M,,*4E
15:08:38.195 -> $GNGSA,A,3,02,25,12,19,17,05,09,06,23,,,,1.43,0.75,1.21*19
15:08:38.261 -> $GNGSA,A,3,84,69,68,85,83,75,76,,,,,,1.43,0.75,1.21*12
15:08:38.328 -> $GPGSV,3,1,10,02,67,298,38,05,35,211,50,06,58,062,45,09,29,082,32*72
15:08:38.394 -> $GPGSV,3,2,10,12,43,260,51,17,24,131,34,19,40,128,33,23,15,044,37*7F
15:08:38.461 -> $GPGSV,3,3,10,25,27,306,39,29,03,309,31*75
15:08:38.494 -> $GLGSV,3,1,09,68,39,043,40,69,61,127,33,70,17,183,,74,08,240,16*64
15:08:38.594 -> $GLGSV,3,2,09,75,21,293,41,76,11,341,34,83,22,100,22,84,67,034,38*6A
15:08:38.660 -> $GLGSV,3,3,09,85,31,310,41*54
15:08:38.693 -> $GNGLL,4531.85992,N,07336.78626,W,190840.00,A,A*61
15:08:39.025 -> $GNRMC,190841.00,A,4531.85990,N,07336.78629,W,0.032,,220719,,,A*7A
15:08:39.092 -> $GNVTG,,T,,M,0.032,N,0.059,K,A*30
15:08:39.125 -> $GNGGA,190841.00,4531.85990,N,07336.78629,W,1,12,0.71,70.7,M,-32.7,M,,*46
15:08:39.191 -> $GNGSA,A,3,02,25,12,19,17,05,09,06,23,,,,1.36,0.71,1.16*1B
15:08:39.258 -> $GNGSA,A,3,84,69,68,85,83,75,76,,,,,,1.36,0.71,1.16*10
15:08:39.324 -> $GPGSV,3,1,10,02,67,298,38,05,35,211,50,06,58,062,46,09,29,082,36*75
15:08:39.391 -> $GPGSV,3,2,10,12,43,260,48,17,24,131,28,19,39,129,31,23,15,044,38*78
15:08:39.457 -> $GPGSV,3,3,10,25,27,306,37,29,03,309,30*7A
15:08:39.490 -> $GLGSV,3,1,10,68,39,043,41,69,61,127,20,70,17,183,,74,08,240,11*68
15:08:39.590 -> $GLGSV,3,2,10,75,21,293,43,76,11,341,36,83,22,100,23,84,67,034,38*63
15:08:39.657 -> $GLGSV,3,3,10,85,31,310,37,,,,44*5D
15:08:39.690 -> $GNGLL,4531.85990,N,07336.78629,W,190841.00,A,A*6D
15:08:40.022 -> $GNRMC,190842.00,A,4531.85989,N,07336.78634,W,0.009,,220719,,,A*75
15:08:40.089 -> $GNVTG,,T,,M,0.009,N,0.017,K,A*32
15:08:40.122 -> $GNGGA,190842.00,4531.85989,N,07336.78634,W,1,12,0.71,70.9,M,-32.7,M,,*4F
15:08:40.188 -> $GNGSA,A,3,02,25,12,19,17,05,09,06,23,,,,1.36,0.71,1.16*1B
15:08:40.255 -> $GNGSA,A,3,84,69,68,85,83,75,76,,,,,,1.36,0.71,1.16*10
15:08:40.321 -> $GPGSV,3,1,10,02,67,298,38,05,35,211,50,06,58,062,46,09,29,082,36*75
15:08:40.388 -> $GPGSV,3,2,10,12,43,260,49,17,24,131,28,19,39,129,30,23,15,044,38*78
15:08:40.454 -> $GPGSV,3,3,10,25,27,306,36,29,03,309,30*7B
15:08:40.487 -> $GLGSV,3,1,10,68,39,043,41,69,61,127,23,70,17,183,,74,08,240,12*68
15:08:40.587 -> $GLGSV,3,2,10,75,21,293,42,76,11,341,35,83,22,100,23,84,67,034,38*61
15:08:40.653 -> $GLGSV,3,3,10,85,31,310,39,,,,44*53
15:08:40.686 -> $GNGLL,4531.85989,N,07336.78634,W,190842.00,A,A*6A
15:08:41.019 -> $GNRMC,190843.00,A,4531.85987,N,07336.78640,W,0.031,,220719,,,A*72
15:08:41.085 -> $GNVTG,,T,,M,0.031,N,0.057,K,A*3D
15:08:41.118 -> $GNGGA,190843.00,4531.85987,N,07336.78640,W,1,12,0.71,71.1,M,-32.7,M,,*4A
15:08:41.184 -> $GNGSA,A,3,02,25,12,19,17,05,09,06,23,,,,1.36,0.71,1.16*1B
15:08:41.251 -> $GNGSA,A,3,84,69,68,85,83,75,76,,,,,,1.36,0.71,1.16*10
15:08:41.317 -> $GPGSV,3,1,10,02,67,298,39,05,35,211,51,06,58,062,46,09,29,082,37*74
15:08:41.384 -> $GPGSV,3,2,10,12,43,260,48,17,24,131,27,19,39,129,29,23,15,044,36*70
15:08:41.450 -> $GPGSV,3,3,10,25,27,306,36,29,03,309,29*73
15:08:41.484 -> $GLGSV,3,1,10,68,39,043,41,69,61,127,26,70,17,183,,74,08,240,18*67
15:08:41.583 -> $GLGSV,3,2,10,75,21,293,42,76,11,341,35,83,22,100,24,84,67,034,38*66
15:08:41.650 -> $GLGSV,3,3,10,85,31,310,42,,,,44*5F
15:08:41.683 -> $GNGLL,4531.85987,N,07336.78640,W,190843.00,A,A*66
15:08:42.015 -> $GNRMC,190844.00,A,4531.85986,N,07336.78642,W,0.034,,220719,,,A*73
15:08:42.082 -> $GNVTG,,T,,M,0.034,N,0.062,K,A*3E
15:08:42.115 -> $GNGGA,190844.00,4531.85986,N,07336.78642,W,1,12,0.71,71.1,M,-32.7,M,,*4E
15:08:42.181 -> $GNGSA,A,3,02,25,12,19,17,05,09,06,23,,,,1.36,0.71,1.16*1B
15:08:42.248 -> $GNGSA,A,3,84,69,68,85,83,75,76,,,,,,1.36,0.71,1.16*10
15:08:42.314 -> $GPGSV,3,1,10,02,67,298,39,05,35,211,51,06,58,062,46,09,29,082,36*75
15:08:42.380 -> $GPGSV,3,2,10,12,43,260,47,17,24,131,28,19,39,129,29,23,15,044,36*70
15:08:42.447 -> $GPGSV,3,3,10,25,27,306,34,29,03,309,29*71
15:08:42.480 -> $GLGSV,3,1,10,68,39,043,40,69,61,127,25,70,17,183,,74,08,240,14*69
15:08:42.580 -> $GLGSV,3,2,10,75,21,293,42,76,11,341,33,83,22,100,24,84,67,034,38*60
15:08:42.646 -> $GLGSV,3,3,10,85,31,310,39,,,,44*53
15:08:42.679 -> $GNGLL,4531.85986,N,07336.78642,W,190844.00,A,A*62
15:08:43.012 -> $GNRMC,190845.00,A,4531.85986,N,07336.78645,W,0.067,,220719,,,A*73
15:08:43.078 -> $GNVTG,,T,,M,0.067,N,0.123,K,A*3C
15:08:43.111 -> $GNGGA,190845.00,4531.85986,N,07336.78645,W,1,12,0.74,71.2,M,-32.7,M,,*4E
15:08:43.178 -> $GNGSA,A,3,02,25,12,19,17,05,09,06,23,,,,1.45,0.74,1.25*1A
15:08:43.244 -> $GNGSA,A,3,84,69,68,85,83,75,76,,,,,,1.45,0.74,1.25*11
15:08:43.311 -> $GPGSV,3,1,10,02,67,298,40,05,35,211,51,06,58,062,46,09,29,082,36*7B
15:08:43.377 -> $GPGSV,3,2,10,12,43,260,46,17,24,131,28,19,39,129,30,23,15,044,36*79
15:08:43.443 -> $GPGSV,3,3,10,25,27,306,36,29,03,309,30*7B
15:08:43.477 -> $GLGSV,3,1,10,68,39,043,41,69,61,127,22,70,17,183,,74,08,240,16*6D
15:08:43.576 -> $GLGSV,3,2,10,75,21,293,42,76,11,341,34,83,22,100,24,84,67,034,38*67
15:08:43.643 -> $GLGSV,3,3,10,85,31,310,41,,,,43*5B
15:08:43.676 -> $GNGLL,4531.85986,N,07336.78645,W,190845.00,A,A*64
15:08:44.008 -> $GNRMC,190846.00,A,4531.85983,N,07336.78646,W,0.144,,220719,,,A*76
15:08:44.075 -> $GNVTG,,T,,M,0.144,N,0.266,K,A*3E
15:08:44.108 -> $GNGGA,190846.00,4531.85983,N,07336.78646,W,1,12,0.71,71.0,M,-32.7,M,,*4C
15:08:44.208 -> $GNGSA,A,3,02,25,12,19,17,05,09,06,23,,,,1.41,0.71,1.22*1C
15:08:44.274 -> $GNGSA,A,3,84,69,68,85,83,75,76,,,,,,1.41,0.71,1.22*17
15:08:44.340 -> $GPGSV,3,1,10,02,67,298,41,05,35,211,50,06,58,062,44,09,29,082,39*76
15:08:44.407 -> $GPGSV,3,2,10,12,43,260,46,17,24,131,27,19,39,129,28,23,15,044,21*79
15:08:44.473 -> $GPGSV,3,3,10,25,27,306,42,29,03,309,21*78
15:08:44.507 -> $GLGSV,3,1,10,68,39,043,40,69,61,127,36,70,17,183,,74,08,240,16*69
15:08:44.606 -> $GLGSV,3,2,10,75,21,293,42,76,11,341,34,83,22,100,25,84,67,034,36*68
15:08:44.673 -> $GLGSV,3,3,10,85,31,310,47,,,,43*5D
15:08:44.706 -> $GNGLL,4531.85983,N,07336.78646,W,190846.00,A,A*61
15:08:45.005 -> $GNRMC,190847.00,A,4531.85984,N,07336.78644,W,0.065,,220719,,,A*70
15:08:45.071 -> $GNVTG,,T,,M,0.065,N,0.121,K,A*3C
15:08:45.105 -> $GNGGA,190847.00,4531.85984,N,07336.78644,W,1,12,0.75,70.9,M,-32.7,M,,*44
15:08:45.171 -> $GNGSA,A,3,02,25,12,19,17,05,09,06,,,,,1.43,0.75,1.21*18
15:08:45.237 -> $GNGSA,A,3,84,69,68,85,83,75,76,,,,,,1.43,0.75,1.21*12
15:08:45.304 -> $GPGSV,3,1,10,02,67,298,41,05,35,211,50,06,58,062,44,09,29,082,38*77
15:08:45.370 -> $GPGSV,3,2,10,12,43,260,46,17,24,131,26,19,39,129,26,23,15,044,*75
15:08:45.437 -> $GPGSV,3,3,10,25,27,306,40,29,03,309,24*7F
15:08:45.470 -> $GLGSV,3,1,10,68,39,043,40,69,61,127,36,70,17,183,,74,08,240,20*6C
15:08:45.537 -> $GLGSV,3,2,10,75,21,293,42,76,11,341,34,83,22,100,25,84,67,034,36*68
15:08:45.636 -> $GLGSV,3,3,10,85,31,310,46,,,,42*5D
15:08:45.669 -> $GNGLL,4531.85984,N,07336.78644,W,190847.00,A,A*65
15:08:46.035 -> $GNRMC,190848.00,A,4531.85985,N,07336.78641,W,0.038,,220719,,,A*73
15:08:46.102 -> $GNVTG,,T,,M,0.038,N,0.070,K,A*31
15:08:46.135 -> $GNGGA,190848.00,4531.85985,N,07336.78641,W,1,12,0.83,70.7,M,-32.7,M,,*48
15:08:46.201 -> $GNGSA,A,3,02,25,12,19,17,05,09,06,,,,,1.71,0.83,1.49*1E
15:08:46.268 -> $GNGSA,A,3,84,69,68,85,83,75,76,,,,,,1.71,0.83,1.49*14
15:08:46.334 -> $GPGSV,3,1,10,02,67,298,39,05,35,211,50,06,58,062,45,09,29,082,33*72
15:08:46.400 -> $GPGSV,3,2,10,12,43,260,48,17,24,131,32,19,39,129,25,23,15,044,*7D
15:08:46.467 -> $GPGSV,3,3,10,25,27,306,35,29,03,309,26*7F
15:08:46.500 -> $GLGSV,3,1,10,68,39,043,42,69,61,127,28,70,17,183,,74,08,240,22*63
15:08:46.567 -> $GLGSV,3,2,10,75,21,293,42,76,11,341,34,83,22,100,25,84,67,034,37*69
15:08:46.666 -> $GLGSV,3,3,10,85,31,310,39,,,,43*54
15:08:46.700 -> $GNGLL,4531.85985,N,07336.78641,W,190848.00,A,A*6E
15:08:47.032 -> $GNRMC,190849.00,A,4531.85986,N,07336.78641,W,0.035,,220719,,,A*7C
15:08:47.098 -> $GNVTG,,T,,M,0.035,N,0.065,K,A*38
15:08:47.132 -> $GNGGA,190849.00,4531.85986,N,07336.78641,W,1,12,0.73,70.6,M,-32.7,M,,*44
15:08:47.198 -> $GNGSA,A,3,02,25,12,19,17,05,09,06,23,,,,1.41,0.73,1.21*1D
15:08:47.265 -> $GNGSA,A,3,84,69,68,85,83,75,76,,,,,,1.41,0.73,1.21*16
15:08:47.331 -> $GPGSV,3,1,10,02,67,298,40,05,35,211,50,06,58,062,46,09,29,082,34*78
15:08:47.398 -> $GPGSV,3,2,10,12,43,260,43,17,24,131,33,19,39,129,26,23,15,044,38*7F
15:08:47.464 -> $GPGSV,3,3,10,25,27,306,34,29,03,309,31*78
15:08:47.497 -> $GLGSV,3,1,10,68,39,043,43,69,61,127,25,70,17,183,,74,08,240,21*6C
15:08:47.597 -> $GLGSV,3,2,10,75,21,293,40,76,11,341,33,83,22,100,24,84,67,034,38*62
15:08:47.663 -> $GLGSV,3,3,10,85,31,310,37,,,,43*5A
15:08:47.697 -> $GNGLL,4531.85986,N,07336.78641,W,190849.00,A,A*6C
15:08:48.029 -> $GNRMC,190850.00,A,4531.85987,N,07336.78641,W,0.059,,220719,,,A*7F
15:08:48.095 -> $GNVTG,,T,,M,0.059,N,0.109,K,A*39
15:08:48.129 -> $GNGGA,190850.00,4531.85987,N,07336.78641,W,1,12,0.78,70.5,M,-32.7,M,,*45
15:08:48.195 -> $GNGSA,A,3,02,25,12,19,17,05,09,06,23,,,,1.51,0.78,1.29*1F
15:08:48.262 -> $GNGSA,A,3,84,69,68,85,83,75,76,,,,,,1.51,0.78,1.29*14
15:08:48.328 -> $GPGSV,3,1,10,02,67,298,40,05,35,211,49,06,58,062,45,09,29,082,33*74
15:08:48.394 -> $GPGSV,3,2,10,12,43,260,40,17,24,131,33,19,39,129,27,23,15,044,37*72
15:08:48.461 -> $GPGSV,3,3,10,25,27,306,33,29,03,309,32*7C
15:08:48.494 -> $GLGSV,3,1,10,68,39,043,42,69,61,127,27,70,17,183,,74,08,240,20*6E
15:08:48.594 -> $GLGSV,3,2,10,75,21,293,37,76,11,341,31,83,22,100,22,84,67,034,38*66
15:08:48.660 -> $GLGSV,3,3,10,85,31,310,29,,,,42*54
15:08:48.693 -> $GNGLL,4531.85987,N,07336.78641,W,190850.00,A,A*65
15:08:49.026 -> $GNRMC,190851.00,A,4531.85987,N,07336.78646,W,0.053,,220719,,,A*73
15:08:49.092 -> $GNVTG,,T,,M,0.053,N,0.098,K,A*3A
15:08:49.126 -> $GNGGA,190851.00,4531.85987,N,07336.78646,W,1,12,0.73,70.6,M,-32.7,M,,*4B
15:08:49.192 -> $GNGSA,A,3,02,25,12,19,17,05,09,06,23,,,,1.41,0.73,1.21*1D
15:08:49.258 -> $GNGSA,A,3,84,69,68,85,83,75,76,,,,,,1.41,0.73,1.21*16
15:08:49.325 -> $GPGSV,3,1,10,02,67,298,40,05,35,211,48,06,58,062,45,09,29,082,31*77
15:08:49.391 -> $GPGSV,3,2,10,12,43,260,40,17,24,131,32,19,39,129,28,23,15,044,37*7C
15:08:49.458 -> $GPGSV,3,3,10,25,27,306,32,29,04,309,33*7B
15:08:49.491 -> $GLGSV,3,1,10,68,39,043,42,69,61,127,30,70,17,183,,74,08,240,17*6C
15:08:49.590 -> $GLGSV,3,2,10,75,21,293,35,76,11,341,25,83,22,100,20,84,67,034,38*63
15:08:49.657 -> $GLGSV,3,3,10,85,31,310,28,,,,43*54
15:08:49.690 -> $GNGLL,4531.85987,N,07336.78646,W,190851.00,A,A*63
15:08:50.022 -> $GNRMC,190852.00,A,4531.85987,N,07336.78653,W,0.067,,220719,,,A*73
15:08:50.089 -> $GNVTG,,T,,M,0.067,N,0.124,K,A*3B
15:08:50.122 -> $GNGGA,190852.00,4531.85987,N,07336.78653,W,1,12,0.76,70.5,M,-32.7,M,,*4A
15:08:50.188 -> $GNGSA,A,3,02,25,12,19,17,05,09,06,23,,,,1.51,0.76,1.30*19
15:08:50.255 -> $GNGSA,A,3,84,69,68,85,83,75,76,,,,,,1.51,0.76,1.30*12
15:08:50.321 -> $GPGSV,3,1,10,02,67,298,40,05,35,211,51,06,58,062,46,09,29,082,34*79
15:08:50.388 -> $GPGSV,3,2,10,12,43,260,45,17,24,131,32,19,39,129,27,23,15,044,38*79
15:08:50.454 -> $GPGSV,3,3,10,25,27,306,32,29,04,309,32*7A
15:08:50.487 -> $GLGSV,3,1,10,68,39,043,43,69,61,127,30,70,17,183,,74,08,240,16*6C
15:08:50.587 -> $GLGSV,3,2,10,75,21,293,39,76,11,341,33,83,22,100,19,84,67,034,38*62
15:08:50.654 -> $GLGSV,3,3,10,85,31,310,28,,,,41*56
15:08:50.687 -> $GNGLL,4531.85987,N,07336.78653,W,190852.00,A,A*64
15:08:51.019 -> $GNRMC,190853.00,A,4531.85988,N,07336.78657,W,0.065,,220719,,,A*7B
15:08:51.086 -> $GNVTG,,T,,M,0.065,N,0.120,K,A*3D
15:08:51.119 -> $GNGGA,190853.00,4531.85988,N,07336.78657,W,1,12,0.73,70.5,M,-32.7,M,,*45
15:08:51.185 -> $GNGSA,A,3,02,25,12,19,17,05,09,06,23,,,,1.41,0.73,1.21*1D
15:08:51.252 -> $GNGSA,A,3,84,69,68,85,83,75,76,,,,,,1.41,0.73,1.21*16
15:08:51.318 -> $GPGSV,3,1,10,02,67,298,38,05,35,211,51,06,58,062,46,09,29,082,34*76
15:08:51.385 -> $GPGSV,3,2,10,12,43,260,50,17,24,131,35,19,39,129,27,23,15,044,38*7A
15:08:51.451 -> $GPGSV,3,3,10,25,27,306,36,29,04,309,32*7E
15:08:51.484 -> $GLGSV,3,1,10,68,39,043,42,69,61,127,28,70,17,183,,74,08,240,21*60
15:08:51.584 -> $GLGSV,3,2,10,75,21,293,38,76,11,341,32,83,22,100,20,84,67,034,38*68
15:08:51.650 -> $GLGSV,3,3,10,85,31,310,39,,,,41*56
15:08:51.684 -> $GNGLL,4531.85988,N,07336.78657,W,190853.00,A,A*6E
15:08:52.016 -> $GNRMC,190854.00,A,4531.85987,N,07336.78659,W,0.027,,220719,,,A*7B
15:08:52.082 -> $GNVTG,,T,,M,0.027,N,0.051,K,A*3C
15:08:52.116 -> $GNGGA,190854.00,4531.85987,N,07336.78659,W,1,12,0.75,70.5,M,-32.7,M,,*45
15:08:52.182 -> $GNGSA,A,3,02,25,12,19,17,05,06,23,,,,,1.44,0.75,1.23*15
15:08:52.249 -> $GNGSA,A,3,84,69,68,85,83,75,76,,,,,,1.44,0.75,1.23*17
15:08:52.315 -> $GPGSV,3,1,10,02,67,298,38,05,35,211,50,06,58,062,46,09,29,082,32*71
15:08:52.381 -> $GPGSV,3,2,10,12,43,260,51,17,24,131,36,19,39,129,28,23,15,044,37*78
15:08:52.448 -> $GPGSV,3,3,10,25,27,306,38,29,04,309,32*70
15:08:52.481 -> $GLGSV,3,1,10,68,39,043,42,69,61,127,27,70,17,183,20,74,08,240,24*68
15:08:52.581 -> $GLGSV,3,2,10,75,21,293,32,76,11,341,30,83,22,100,22,84,67,034,37*6D
15:08:52.647 -> $GLGSV,3,3,10,85,31,310,42,,,,42*59
15:08:52.680 -> $GNGLL,4531.85987,N,07336.78659,W,190854.00,A,A*68
15:08:53.013 -> $GNRMC,190855.00,A,4531.85990,N,07336.78665,W,0.017,,220719,,,A*70
15:08:53.079 -> $GNVTG,,T,,M,0.017,N,0.032,K,A*3A
15:08:53.112 -> $GNGGA,190855.00,4531.85990,N,07336.78665,W,1,12,0.75,70.5,M,-32.7,M,,*4D
15:08:53.179 -> $GNGSA,A,3,02,25,12,19,17,05,09,06,23,,,,1.44,0.75,1.23*1C
15:08:53.245 -> $GNGSA,A,3,84,69,68,85,83,75,76,,,,,,1.44,0.75,1.23*17
15:08:53.312 -> $GPGSV,3,1,10,02,67,298,37,05,35,211,49,06,58,062,46,09,29,082,32*76
15:08:53.378 -> $GPGSV,3,2,10,12,43,260,51,17,24,131,37,19,39,129,29,23,15,044,36*79
15:08:53.445 -> $GPGSV,3,3,10,25,27,306,40,29,04,309,33*7E
15:08:53.478 -> $GLGSV,3,1,10,68,39,043,43,69,61,127,28,70,17,183,20,74,08,240,24*66
15:08:53.577 -> $GLGSV,3,2,10,75,21,293,33,76,11,341,29,83,22,100,22,84,67,034,37*64
15:08:53.644 -> $GLGSV,3,3,10,85,31,310,40,,,,42*5B
15:08:53.677 -> $GNGLL,4531.85990,N,07336.78665,W,190855.00,A,A*60
15:08:54.009 -> $GNRMC,190856.00,A,4531.85993,N,07336.78673,W,0.026,,220719,,,A*75
15:08:54.076 -> $GNVTG,,T,,M,0.026,N,0.047,K,A*3A
15:08:54.109 -> $GNGGA,190856.00,4531.85993,N,07336.78673,W,1,12,0.75,70.7,M,-32.7,M,,*48
15:08:54.175 -> $GNGSA,A,3,02,25,12,19,17,05,09,06,23,,,,1.44,0.75,1.23*1C
15:08:54.242 -> $GNGSA,A,3,84,69,68,85,83,75,76,,,,,,1.44,0.75,1.23*17
15:08:54.308 -> $GPGSV,3,1,10,02,67,298,37,05,35,211,49,06,58,062,46,09,29,082,26*73
15:08:54.375 -> $GPGSV,3,2,10,12,43,260,51,17,24,131,38,19,39,129,28,23,15,044,35*74
15:08:54.441 -> $GPGSV,3,3,10,25,27,306,39,29,04,309,32*71
15:08:54.474 -> $GLGSV,3,1,10,68,39,043,43,69,61,127,29,70,17,183,20,74,08,240,25*66
15:08:54.574 -> $GLGSV,3,2,10,75,21,293,32,76,11,341,29,83,22,100,23,84,67,034,37*64
15:08:54.640 -> $GLGSV,3,3,10,85,31,310,41,,,,42*5A
15:08:54.673 -> $GNGLL,4531.85993,N,07336.78673,W,190856.00,A,A*67
15:08:55.006 -> $GNRMC,190857.00,A,4531.85998,N,07336.78685,W,0.015,,220719,,,A*76
15:08:55.072 -> $GNVTG,,T,,M,0.015,N,0.027,K,A*3C
15:08:55.105 -> $GNGGA,190857.00,4531.85998,N,07336.78685,W,1,12,0.75,70.9,M,-32.7,M,,*45
15:08:55.172 -> $GNGSA,A,3,02,25,12,19,17,05,06,23,,,,,1.44,0.75,1.23*15
15:08:55.238 -> $GNGSA,A,3,84,69,68,85,83,75,76,,,,,,1.44,0.75,1.23*17
15:08:55.305 -> $GPGSV,3,1,10,02,67,298,36,05,35,211,49,06,58,062,46,09,29,082,*76
15:08:55.371 -> $GPGSV,3,2,10,12,43,260,51,17,24,131,39,19,39,129,27,23,15,044,35*7A
15:08:55.438 -> $GPGSV,3,3,10,25,27,306,39,29,04,309,33*70
15:08:55.471 -> $GLGSV,3,1,10,68,39,043,43,69,61,127,30,70,17,183,20,74,08,240,25*6E
15:08:55.571 -> $GLGSV,3,2,10,75,21,293,33,76,11,341,30,83,22,100,23,84,67,034,37*6D
15:08:55.637 -> $GLGSV,3,3,10,85,31,310,40,,,,42*5B
15:08:55.670 -> $GNGLL,4531.85998,N,07336.78685,W,190857.00,A,A*64
15:08:56.003 -> $GNRMC,190858.00,A,4531.86005,N,07336.78696,W,0.057,,220719,,,A*73
15:08:56.069 -> $GNVTG,,T,,M,0.057,N,0.105,K,A*3B
15:08:56.102 -> $GNGGA,190858.00,4531.86005,N,07336.78696,W,1,12,0.75,71.1,M,-32.7,M,,*4F
15:08:56.169 -> $GNGSA,A,3,02,25,12,19,17,05,06,23,,,,,1.44,0.75,1.23*15
15:08:56.235 -> $GNGSA,A,3,84,69,68,85,83,75,76,,,,,,1.44,0.75,1.23*17
15:08:56.302 -> $GPGSV,3,1,10,02,67,298,37,05,35,211,49,06,58,062,46,09,29,082,*77
15:08:56.368 -> $GPGSV,3,2,10,12,43,260,51,17,24,131,39,19,39,129,27,23,15,044,34*7B
15:08:56.435 -> $GPGSV,3,3,10,25,27,306,40,29,04,309,33*7E
15:08:56.468 -> $GLGSV,3,1,10,68,39,043,43,69,61,127,31,70,17,183,20,74,08,240,25*6F
15:08:56.567 -> $GLGSV,3,2,10,75,21,293,33,76,11,341,29,83,22,100,21,84,67,034,38*68
15:08:56.634 -> $GLGSV,3,3,10,85,31,310,41,,,,41*59
15:08:56.667 -> $GNGLL,4531.86005,N,07336.78696,W,190858.00,A,A*67
15:08:56.999 -> $GNRMC,190859.00,A,4531.86009,N,07336.78705,W,0.020,,220719,,,A*75
15:08:57.099 -> $GNVTG,,T,,M,0.020,N,0.037,K,A*3B
15:08:57.099 -> $GNGGA,190859.00,4531.86009,N,07336.78705,W,1,12,0.75,71.2,M,-32.7,M,,*4A
15:08:57.198 -> $GNGSA,A,3,02,25,12,19,17,05,06,23,,,,,1.44,0.75,1.23*15
15:08:57.265 -> $GNGSA,A,3,84,69,68,85,83,75,76,,,,,,1.44,0.75,1.23*17
15:08:57.332 -> $GPGSV,3,1,10,02,67,298,37,05,35,211,50,06,58,062,46,09,29,082,*7F
15:08:57.398 -> $GPGSV,3,2,10,12,43,260,50,17,24,131,38,19,39,129,26,23,15,044,35*7B
15:08:57.464 -> $GPGSV,3,3,10,25,27,306,39,29,04,309,33*70
15:08:57.498 -> $GLGSV,3,1,10,68,39,043,43,69,61,127,33,70,17,183,20,74,08,240,26*6E
