12:11:17.162 -> $GNVTG,,T,,M,0.013,N,0.024,K,A*39
12:11:17.196 -> $GNGGA,161117.00,4531.84217,N,07336.88898,W,1,12,0.85,80.0,M,-32.7,M,,*4F
12:11:17.262 -> $GNGSA,A,3,01,19,28,22,17,,,,,,,,1.41,0.85,1.13*13
12:11:17.329 -> $GNGSA,A,3,79,78,77,81,87,88,71,72,,,,,1.41,0.85,1.13*12
12:11:17.395 -> $GPGSV,3,1,11,01,29,051,41,03,39,092,,06,36,224,,11,18,066,*7C
12:11:17.462 -> $GPGSV,3,2,11,17,71,319,52,18,05,052,22,19,54,291,47,22,32,065,23*7C
12:11:17.528 -> $GPGSV,3,3,11,24,17,310,,28,64,155,47,30,01,189,*43
12:11:17.594 -> $GLGSV,3,1,10,65,04,135,,71,20,043,43,72,20,095,17,77,40,200,36*6C
12:11:17.661 -> $GLGSV,3,2,10,78,56,286,46,79,17,332,29,81,10,257,30,86,09,061,26*69
12:11:17.761 -> $GLGSV,3,3,10,87,60,022,50,88,52,282,47*64
12:11:17.794 -> $GNGLL,4531.84217,N,07336.88898,W,161117.00,A,A*67
12:11:18.126 -> $GNRMC,161118.00,A,4531.84216,N,07336.88904,W,0.013,,190719,,,A*71
12:11:18.192 -> $GNVTG,,T,,M,0.013,N,0.024,K,A*39
12:11:18.226 -> $GNGGA,161118.00,4531.84216,N,07336.88904,W,1,12,0.82,79.9,M,-32.7,M,,*4D
12:11:18.292 -> $GNGSA,A,3,01,19,28,11,22,17,,,,,,,1.37,0.82,1.09*1E
12:11:18.359 -> $GNGSA,A,3,79,78,77,81,87,88,71,72,,,,,1.37,0.82,1.09*1F
12:11:18.425 -> $GPGSV,3,1,11,01,29,051,41,03,39,092,,06,36,224,,11,18,066,30*7F
12:11:18.491 -> $GPGSV,3,2,11,17,71,319,53,18,05,052,23,19,54,291,47,22,32,065,27*78
12:11:18.558 -> $GPGSV,3,3,11,24,17,310,,28,64,155,48,30,01,189,*4C
12:11:18.591 -> $GLGSV,3,1,10,65,04,135,,71,20,043,44,72,20,095,18,77,40,200,36*64
12:11:18.691 -> $GLGSV,3,2,10,78,56,286,45,79,17,332,29,81,10,257,29,86,09,061,26*62
12:11:18.757 -> $GLGSV,3,3,10,87,60,022,50,88,52,282,47*64
12:11:18.790 -> $GNGLL,4531.84216,N,07336.88904,W,161118.00,A,A*6D
12:11:19.122 -> $GNRMC,161119.00,A,4531.84214,N,07336.88912,W,0.041,,190719,,,A*72
12:11:19.189 -> $GNVTG,,T,,M,0.041,N,0.077,K,A*38
12:11:19.222 -> $GNGGA,161119.00,4531.84214,N,07336.88912,W,1,12,0.82,79.7,M,-32.7,M,,*47
12:11:19.289 -> $GNGSA,A,3,01,19,28,11,22,17,,,,,,,1.37,0.82,1.09*1E
12:11:19.355 -> $GNGSA,A,3,79,78,77,81,87,88,71,72,,,,,1.37,0.82,1.09*1F
12:11:19.422 -> $GPGSV,3,1,11,01,29,051,41,03,39,092,,06,36,224,,11,18,066,30*7F
12:11:19.488 -> $GPGSV,3,2,11,17,71,319,53,18,05,052,23,19,54,291,47,22,32,065,29*76
12:11:19.554 -> $GPGSV,3,3,11,24,17,310,,28,64,155,48,30,01,189,*4C
12:11:19.588 -> $GLGSV,3,1,10,65,04,135,,71,20,043,44,72,20,095,20,77,40,200,36*6F
12:11:19.687 -> $GLGSV,3,2,10,78,56,286,45,79,17,332,27,81,10,257,27,86,09,061,26*62
12:11:19.754 -> $GLGSV,3,3,10,87,60,022,50,88,52,282,47*64
12:11:19.787 -> $GNGLL,4531.84214,N,07336.88912,W,161119.00,A,A*69
12:11:20.119 -> $GNRMC,161120.00,A,4531.84212,N,07336.88922,W,0.022,,190719,,,A*78
12:11:20.186 -> $GNVTG,,T,,M,0.022,N,0.042,K,A*3B
12:11:20.219 -> $GNGGA,161120.00,4531.84212,N,07336.88922,W,1,12,0.95,79.5,M,-32.7,M,,*4C
12:11:20.285 -> $GNGSA,A,3,01,19,28,11,22,17,,,,,,,1.51,0.95,1.18*18
12:11:20.352 -> $GNGSA,A,3,79,78,77,81,87,88,71,72,,,,,1.51,0.95,1.18*19
12:11:20.418 -> $GPGSV,3,1,11,01,29,051,40,03,39,092,,06,36,224,,11,18,066,29*76
12:11:20.485 -> $GPGSV,3,2,11,17,71,319,53,18,05,052,23,19,54,291,47,22,32,065,32*7C
12:11:20.551 -> $GPGSV,3,3,11,24,17,310,,28,64,155,49,30,01,189,*4D
12:11:20.584 -> $GLGSV,3,1,10,65,04,135,,71,20,043,43,72,20,095,24,77,40,200,37*6D
12:11:20.683 -> $GLGSV,3,2,10,78,56,286,44,79,17,332,25,81,10,257,27,86,09,061,26*61
12:11:20.750 -> $GLGSV,3,3,10,87,59,023,51,88,52,282,45*6C
12:11:20.783 -> $GNGLL,4531.84212,N,07336.88922,W,161120.00,A,A*66
12:11:21.115 -> $GNRMC,161121.00,A,4531.84210,N,07336.88932,W,0.004,,190719,,,A*7E
12:11:21.182 -> $GNVTG,,T,,M,0.004,N,0.007,K,A*3E
12:11:21.215 -> $GNGGA,161121.00,4531.84210,N,07336.88932,W,1,12,0.95,79.4,M,-32.7,M,,*4F
12:11:21.281 -> $GNGSA,A,3,01,19,28,11,22,17,,,,,,,1.51,0.95,1.18*18
12:11:21.348 -> $GNGSA,A,3,79,78,77,81,87,88,71,72,,,,,1.51,0.95,1.18*19
12:11:21.414 -> $GPGSV,3,1,11,01,29,051,40,03,39,092,,06,36,224,,11,18,066,30*7E
12:11:21.481 -> $GPGSV,3,2,11,17,71,319,53,18,05,052,23,19,54,291,48,22,32,065,31*70
12:11:21.547 -> $GPGSV,3,3,11,24,17,310,,28,64,155,49,30,01,189,*4D
12:11:21.580 -> $GLGSV,3,1,10,65,04,135,,71,20,043,44,72,20,095,24,77,40,200,38*65
12:11:21.680 -> $GLGSV,3,2,10,78,56,286,44,79,17,332,25,81,10,257,28,86,09,061,25*6D
12:11:21.746 -> $GLGSV,3,3,10,87,59,023,50,88,52,283,46*6F
12:11:21.779 -> $GNGLL,4531.84210,N,07336.88932,W,161121.00,A,A*64
12:11:22.112 -> $GNRMC,161122.00,A,4531.84209,N,07336.88939,W,0.053,,190719,,,A*7C
12:11:22.178 -> $GNVTG,,T,,M,0.053,N,0.098,K,A*3A
12:11:22.211 -> $GNGGA,161122.00,4531.84209,N,07336.88939,W,1,12,0.95,79.3,M,-32.7,M,,*48
12:11:22.278 -> $GNGSA,A,3,01,19,28,11,22,17,,,,,,,1.51,0.95,1.18*18
12:11:22.344 -> $GNGSA,A,3,79,78,77,81,87,88,71,72,,,,,1.51,0.95,1.18*19
12:11:22.410 -> $GPGSV,3,1,11,01,29,051,41,03,39,092,,06,36,224,,11,18,066,29*77
12:11:22.477 -> $GPGSV,3,2,11,17,71,319,53,18,05,052,21,19,54,291,49,22,32,065,25*76
12:11:22.543 -> $GPGSV,3,3,11,24,17,310,,28,64,155,48,30,01,189,*4C
12:11:22.576 -> $GLGSV,3,1,10,65,04,135,,71,20,043,44,72,20,095,24,77,40,200,38*65
12:11:22.676 -> $GLGSV,3,2,10,78,56,286,46,79,17,332,23,81,10,257,28,86,09,061,26*6A
12:11:22.742 -> $GLGSV,3,3,10,87,59,023,50,88,52,283,47*6E
12:11:22.776 -> $GNGLL,4531.84209,N,07336.88939,W,161122.00,A,A*64
12:11:23.108 -> $GNRMC,161123.00,A,4531.84208,N,07336.88950,W,0.044,,190719,,,A*75
12:11:23.174 -> $GNVTG,,T,,M,0.044,N,0.082,K,A*37
12:11:23.208 -> $GNGGA,161123.00,4531.84208,N,07336.88950,W,1,12,1.09,79.1,M,-32.7,M,,*41
12:11:23.274 -> $GNGSA,A,3,01,19,28,11,22,03,17,,,,,,2.26,1.09,1.98*14
12:11:23.340 -> $GNGSA,A,3,79,78,77,81,87,88,71,72,,,,,2.26,1.09,1.98*16
12:11:23.407 -> $GPGSV,3,1,11,01,29,051,41,03,39,091,30,06,36,224,,11,18,066,28*76
12:11:23.473 -> $GPGSV,3,2,11,17,71,319,53,18,05,052,19,19,54,291,49,22,32,065,37*7E
12:11:23.540 -> $GPGSV,3,3,11,24,17,310,,28,64,155,47,30,01,189,*43
12:11:23.606 -> $GLGSV,3,1,10,65,04,135,,71,20,043,44,72,20,095,26,77,40,200,39*66
12:11:23.673 -> $GLGSV,3,2,10,78,56,286,45,79,17,332,22,81,10,257,26,86,09,061,25*65
12:11:23.739 -> $GLGSV,3,3,10,87,59,023,50,88,52,283,46*6F
12:11:23.772 -> $GNGLL,4531.84208,N,07336.88950,W,161123.00,A,A*6B
12:11:24.104 -> $GNRMC,161124.00,A,4531.84205,N,07336.88964,W,0.034,,190719,,,A*7F
12:11:24.171 -> $GNVTG,,T,,M,0.034,N,0.062,K,A*3E
12:11:24.204 -> $GNGGA,161124.00,4531.84205,N,07336.88964,W,1,12,1.09,79.0,M,-32.7,M,,*4D
12:11:24.271 -> $GNGSA,A,3,01,19,28,11,22,03,17,,,,,,2.26,1.09,1.98*14
12:11:24.337 -> $GNGSA,A,3,79,78,77,81,87,88,71,72,,,,,2.26,1.09,1.98*16
12:11:24.403 -> $GPGSV,3,1,11,01,29,051,39,03,39,091,31,06,36,224,,11,18,066,28*78
12:11:24.470 -> $GPGSV,3,2,11,17,71,319,53,18,05,052,20,19,54,291,49,22,32,065,39*7A
12:11:24.536 -> $GPGSV,3,3,11,24,17,310,,28,64,155,47,30,01,189,*43
12:11:24.603 -> $GLGSV,3,1,10,65,04,135,,71,20,043,44,72,20,095,29,77,40,200,39*69
12:11:24.669 -> $GLGSV,3,2,10,78,56,286,46,79,17,332,24,81,10,257,23,86,09,061,26*66
12:11:24.736 -> $GLGSV,3,3,10,87,59,023,50,88,52,283,46*6F
12:11:24.769 -> $GNGLL,4531.84205,N,07336.88964,W,161124.00,A,A*66
12:11:25.101 -> $GNRMC,161125.00,A,4531.84206,N,07336.88971,W,0.028,,190719,,,A*74
12:11:25.168 -> $GNVTG,,T,,M,0.028,N,0.051,K,A*33
12:11:25.201 -> $GNGGA,161125.00,4531.84206,N,07336.88971,W,1,12,1.09,78.9,M,-32.7,M,,*43
12:11:25.267 -> $GNGSA,A,3,01,19,28,11,22,03,17,,,,,,2.26,1.09,1.98*14
12:11:25.334 -> $GNGSA,A,3,79,78,77,81,87,88,71,72,,,,,2.26,1.09,1.98*16
12:11:25.400 -> $GPGSV,3,1,11,01,29,051,40,03,39,091,27,06,37,225,,11,18,066,27*7E
12:11:25.467 -> $GPGSV,3,2,11,17,71,319,53,18,05,052,19,19,54,291,48,22,32,065,29*70
12:11:25.533 -> $GPGSV,3,3,11,24,17,310,,28,64,155,46,30,01,189,*42
12:11:25.599 -> $GLGSV,3,1,10,65,04,135,,71,20,043,44,72,20,095,32,77,40,200,35*6F
12:11:25.666 -> $GLGSV,3,2,10,78,56,286,45,79,17,332,23,81,10,257,21,86,09,061,25*63
12:11:25.732 -> $GLGSV,3,3,10,87,59,023,50,88,52,283,46*6F
12:11:25.766 -> $GNGLL,4531.84206,N,07336.88971,W,161125.00,A,A*60
12:11:26.098 -> $GNRMC,161126.00,A,4531.84205,N,07336.88977,W,0.042,,190719,,,A*7E
12:11:26.164 -> $GNVTG,,T,,M,0.042,N,0.078,K,A*34
12:11:26.198 -> $GNGGA,161126.00,4531.84205,N,07336.88977,W,1,12,1.09,78.8,M,-32.7,M,,*44
12:11:26.264 -> $GNGSA,A,3,01,19,28,11,22,03,17,,,,,,2.26,1.09,1.98*14
12:11:26.364 -> $GNGSA,A,3,79,78,77,81,87,88,71,72,,,,,2.26,1.09,1.98*16
12:11:26.430 -> $GPGSV,3,1,11,01,29,051,41,03,39,091,27,06,37,225,,11,18,066,28*70
12:11:26.496 -> $GPGSV,3,2,11,17,71,319,53,18,05,052,19,19,54,291,48,22,32,065,34*7C
12:11:26.530 -> $GPGSV,3,3,11,24,17,310,,28,64,155,47,30,01,189,*43
12:11:26.629 -> $GLGSV,3,1,10,65,04,135,,71,20,043,45,72,20,095,31,77,40,200,36*6E
12:11:26.663 -> $GLGSV,3,2,10,78,56,286,46,79,17,332,22,81,10,257,20,86,09,061,26*63
12:11:26.762 -> $GLGSV,3,3,10,87,59,023,49,88,52,283,48*69
12:11:26.796 -> $GNGLL,4531.84205,N,07336.88977,W,161126.00,A,A*66
12:11:27.128 -> $GNRMC,161127.00,A,4531.84201,N,07336.88982,W,0.013,,190719,,,A*75
12:11:27.194 -> $GNVTG,,T,,M,0.013,N,0.023,K,A*3E
12:11:27.228 -> $GNGGA,161127.00,4531.84201,N,07336.88982,W,1,12,1.09,78.5,M,-32.7,M,,*46
12:11:27.294 -> $GNGSA,A,3,01,19,28,11,22,03,17,,,,,,2.26,1.09,1.98*14
12:11:27.360 -> $GNGSA,A,3,79,78,77,81,87,88,71,72,,,,,2.26,1.09,1.98*16
12:11:27.427 -> $GPGSV,3,1,11,01,29,051,41,03,39,091,27,06,37,225,,11,18,066,28*70
12:11:27.493 -> $GPGSV,3,2,11,17,71,319,53,18,05,052,18,19,54,291,50,22,32,065,33*73
12:11:27.560 -> $GPGSV,3,3,11,24,17,310,,28,64,155,46,30,01,189,*42
12:11:27.626 -> $GLGSV,3,1,10,65,04,135,,71,20,043,45,72,20,095,30,77,40,200,40*6E
12:11:27.693 -> $GLGSV,3,2,10,78,56,286,47,79,17,332,22,81,10,257,19,86,09,061,26*68
12:11:27.759 -> $GLGSV,3,3,10,87,59,023,51,88,52,283,48*60
12:11:27.792 -> $GNGLL,4531.84201,N,07336.88982,W,161127.00,A,A*69
12:11:28.125 -> $GNRMC,161128.00,A,4531.84198,N,07336.88987,W,0.012,,190719,,,A*7D
12:11:28.191 -> $GNVTG,,T,,M,0.012,N,0.022,K,A*3E
12:11:28.224 -> $GNGGA,161128.00,4531.84198,N,07336.88987,W,1,12,1.09,78.3,M,-32.7,M,,*49
12:11:28.291 -> $GNGSA,A,3,01,19,28,11,22,03,17,,,,,,2.26,1.09,1.98*14
12:11:28.357 -> $GNGSA,A,3,79,78,77,81,87,88,71,72,,,,,2.26,1.09,1.98*16
12:11:28.424 -> $GPGSV,3,1,11,01,29,051,41,03,39,091,29,06,37,225,,11,18,066,27*71
12:11:28.490 -> $GPGSV,3,2,11,17,71,319,53,18,05,052,18,19,54,291,49,22,32,065,35*7D
12:11:28.556 -> $GPGSV,3,3,11,24,17,310,,28,64,155,46,30,01,189,*42
12:11:28.623 -> $GLGSV,3,1,10,65,04,135,,71,20,043,44,72,20,095,28,77,40,200,39*68
12:11:28.689 -> $GLGSV,3,2,10,78,56,286,46,79,17,332,18,81,10,257,19,86,09,061,24*62
12:11:28.756 -> $GLGSV,3,3,10,87,59,023,50,88,52,283,46*6F
12:11:28.789 -> $GNGLL,4531.84198,N,07336.88987,W,161128.00,A,A*60
12:11:29.121 -> $GNRMC,161129.00,A,4531.84195,N,07336.88993,W,0.015,,190719,,,A*73
12:11:29.188 -> $GNVTG,,T,,M,0.015,N,0.028,K,A*33
12:11:29.221 -> $GNGGA,161129.00,4531.84195,N,07336.88993,W,1,12,1.09,78.2,M,-32.7,M,,*41
12:11:29.287 -> $GNGSA,A,3,01,19,28,11,22,03,17,,,,,,2.26,1.09,1.98*14
12:11:29.354 -> $GNGSA,A,3,79,78,77,81,87,88,71,72,,,,,2.26,1.09,1.98*16
12:11:29.420 -> $GPGSV,3,1,11,01,29,051,42,03,39,091,29,06,37,225,,11,18,066,27*72
12:11:29.487 -> $GPGSV,3,2,11,17,71,319,53,18,05,052,18,19,54,291,49,22,32,065,37*7F
12:11:29.553 -> $GPGSV,3,3,11,24,17,310,,28,64,155,47,30,01,189,*43
12:11:29.619 -> $GLGSV,3,1,10,65,04,135,,71,20,043,44,72,20,095,28,77,40,200,40*66
12:11:29.686 -> $GLGSV,3,2,10,78,56,286,45,79,17,332,22,81,10,257,16,86,09,061,24*67
12:11:29.752 -> $GLGSV,3,3,10,87,59,023,50,88,52,283,46*6F
12:11:29.785 -> $GNGLL,4531.84195,N,07336.88993,W,161129.00,A,A*69
12:11:30.118 -> $GNRMC,161130.00,A,4531.84191,N,07336.88999,W,0.006,,190719,,,A*77
12:11:30.184 -> $GNVTG,,T,,M,0.006,N,0.011,K,A*3B
12:11:30.217 -> $GNGGA,161130.00,4531.84191,N,07336.88999,W,1,12,1.17,77.9,M,-32.7,M,,*4C
12:11:30.284 -> $GNGSA,A,3,01,19,28,11,22,17,,,,,,,2.39,1.17,2.08*1C
12:11:30.350 -> $GNGSA,A,3,79,78,77,81,87,88,71,72,,,,,2.39,1.17,2.08*1D
12:11:30.417 -> $GPGSV,3,1,11,01,29,051,41,03,39,091,,06,37,225,,11,17,066,27*75
12:11:30.483 -> $GPGSV,3,2,11,17,71,319,53,18,05,052,18,19,54,291,49,22,32,065,36*7E
12:11:30.550 -> $GPGSV,3,3,11,24,17,310,,28,64,155,47,30,01,189,*43
12:11:30.583 -> $GLGSV,3,1,10,65,04,135,,71,20,043,44,72,20,095,28,77,40,200,41*67
12:11:30.683 -> $GLGSV,3,2,10,78,56,286,45,79,17,332,23,81,10,257,13,86,09,061,25*62
12:11:30.749 -> $GLGSV,3,3,10,87,59,023,50,88,52,283,45*6C
12:11:30.782 -> $GNGLL,4531.84191,N,07336.88999,W,161130.00,A,A*6F
12:11:31.114 -> $GNRMC,161131.00,A,4531.84189,N,07336.89004,W,0.011,,190719,,,A*75
12:11:31.181 -> $GNVTG,,T,,M,0.011,N,0.019,K,A*35
12:11:31.214 -> $GNGGA,161131.00,4531.84189,N,07336.89004,W,1,12,1.17,77.8,M,-32.7,M,,*49
12:11:31.281 -> $GNGSA,A,3,01,19,28,11,22,17,,,,,,,2.38,1.17,2.08*1D
12:11:31.347 -> $GNGSA,A,3,79,78,77,87,88,71,72,,,,,,2.38,1.17,2.08*15
12:11:31.414 -> $GPGSV,3,1,11,01,29,051,41,03,39,091,,06,37,225,,11,17,066,26*74
12:11:31.480 -> $GPGSV,3,2,11,17,71,319,53,18,05,052,18,19,54,291,49,22,32,065,35*7D
12:11:31.546 -> $GPGSV,3,3,11,24,17,310,,28,64,155,46,30,01,189,*42
12:11:31.580 -> $GLGSV,3,1,10,65,04,135,,71,20,043,43,72,20,095,27,77,40,200,40*6E
12:11:31.679 -> $GLGSV,3,2,10,78,56,286,46,79,17,332,23,81,10,257,09,86,09,061,25*6A
12:11:31.746 -> $GLGSV,3,3,10,87,59,023,50,88,52,283,46*6F
12:11:31.779 -> $GNGLL,4531.84189,N,07336.89004,W,161131.00,A,A*6B
12:11:32.111 -> $GNRMC,161132.00,A,4531.84186,N,07336.89007,W,0.018,,190719,,,A*73
12:11:32.178 -> $GNVTG,,T,,M,0.018,N,0.033,K,A*34
12:11:32.211 -> $GNGGA,161132.00,4531.84186,N,07336.89007,W,1,12,1.17,77.6,M,-32.7,M,,*48
12:11:32.277 -> $GNGSA,A,3,01,19,28,11,22,17,,,,,,,2.38,1.17,2.08*1D
12:11:32.344 -> $GNGSA,A,3,79,78,77,87,88,71,72,,,,,,2.38,1.17,2.08*15
12:11:32.410 -> $GPGSV,3,1,11,01,29,051,41,03,39,091,,06,37,225,,11,17,066,26*74
12:11:32.477 -> $GPGSV,3,2,11,17,71,319,53,18,05,052,18,19,54,291,49,22,32,065,35*7D
12:11:32.543 -> $GPGSV,3,3,11,24,17,310,,28,64,155,46,30,01,189,*42
12:11:32.576 -> $GLGSV,3,1,10,65,04,135,,71,20,043,43,72,20,095,27,77,40,200,40*6E
12:11:32.676 -> $GLGSV,3,2,10,78,56,286,46,79,17,332,25,81,10,257,07,86,09,061,25*62
12:11:32.743 -> $GLGSV,3,3,10,87,59,023,50,88,52,283,46*6F
12:11:32.776 -> $GNGLL,4531.84186,N,07336.89007,W,161132.00,A,A*64
12:11:33.108 -> $GNRMC,161133.00,A,4531.84184,N,07336.89011,W,0.013,,190719,,,A*7C
12:11:33.174 -> $GNVTG,,T,,M,0.013,N,0.024,K,A*39
12:11:33.207 -> $GNGGA,161133.00,4531.84184,N,07336.89011,W,1,12,1.17,77.5,M,-32.7,M,,*4F
12:11:33.274 -> $GNGSA,A,3,01,19,28,11,22,17,,,,,,,2.38,1.17,2.08*1D
12:11:33.340 -> $GNGSA,A,3,79,78,77,87,88,71,72,,,,,,2.38,1.17,2.08*15
12:11:33.407 -> $GPGSV,3,1,11,01,29,051,41,03,39,091,,06,37,225,,11,17,066,26*74
12:11:33.473 -> $GPGSV,3,2,11,17,71,319,53,18,05,052,17,19,54,291,49,22,32,065,36*71
12:11:33.540 -> $GPGSV,3,3,11,24,17,310,,28,64,155,46,30,01,189,*42
12:11:33.573 -> $GLGSV,3,1,10,65,04,135,,71,20,043,43,72,20,095,26,77,40,200,41*6E
12:11:33.672 -> $GLGSV,3,2,10,78,56,286,46,79,17,332,26,81,10,257,07,86,09,061,26*62
12:11:33.739 -> $GLGSV,3,3,10,87,59,023,50,88,52,283,46*6F
12:11:33.772 -> $GNGLL,4531.84184,N,07336.89011,W,161133.00,A,A*60
12:11:34.104 -> $GNRMC,161134.00,A,4531.84183,N,07336.89014,W,0.022,,190719,,,A*7B
12:11:34.171 -> $GNVTG,,T,,M,0.022,N,0.040,K,A*39
12:11:34.204 -> $GNGGA,161134.00,4531.84183,N,07336.89014,W,1,12,1.17,77.4,M,-32.7,M,,*4B
12:11:34.271 -> $GNGSA,A,3,01,19,28,11,22,17,,,,,,,2.38,1.17,2.08*1D
12:11:34.337 -> $GNGSA,A,3,79,78,77,87,88,71,72,,,,,,2.38,1.17,2.08*15
12:11:34.403 -> $GPGSV,3,1,11,01,29,051,41,03,39,091,,06,37,225,,11,17,066,26*74
12:11:34.470 -> $GPGSV,3,2,11,17,71,319,53,18,05,052,16,19,54,291,49,22,32,065,36*70
12:11:34.536 -> $GPGSV,3,3,11,24,17,310,,28,64,155,46,30,01,189,*42
12:11:34.570 -> $GLGSV,3,1,10,65,04,135,,71,20,043,43,72,20,095,26,77,40,200,41*6E
12:11:34.669 -> $GLGSV,3,2,10,78,56,286,45,79,17,332,26,81,10,257,07,86,09,061,26*61
12:11:34.736 -> $GLGSV,3,3,10,87,59,023,50,88,52,283,46*6F
12:11:34.769 -> $GNGLL,4531.84183,N,07336.89014,W,161134.00,A,A*65
12:11:35.101 -> $GNRMC,161135.00,A,4531.84182,N,07336.89019,W,0.011,,190719,,,A*76
12:11:35.168 -> $GNVTG,,T,,M,0.011,N,0.020,K,A*3F
12:11:35.201 -> $GNGGA,161135.00,4531.84182,N,07336.89019,W,1,12,1.17,77.2,M,-32.7,M,,*40
12:11:35.267 -> $GNGSA,A,3,01,19,28,11,22,17,,,,,,,2.38,1.17,2.08*1D
12:11:35.334 -> $GNGSA,A,3,79,78,77,81,87,88,71,72,,,,,2.38,1.17,2.08*1C
12:11:35.400 -> $GPGSV,3,1,11,01,29,051,41,03,39,091,,06,37,225,,11,17,066,27*75
12:11:35.467 -> $GPGSV,3,2,11,17,71,319,53,18,05,052,14,19,54,291,49,22,32,065,36*72
12:11:35.533 -> $GPGSV,3,3,11,24,17,310,,28,64,155,47,30,01,189,*43
12:11:35.567 -> $GLGSV,3,1,10,65,04,135,,71,20,043,42,72,20,095,27,77,40,200,40*6F
12:11:35.666 -> $GLGSV,3,2,10,78,56,286,45,79,17,332,26,81,10,257,08,86,09,061,26*6E
12:11:35.733 -> $GLGSV,3,3,10,87,59,023,50,88,52,283,46*6F
12:11:35.766 -> $GNGLL,4531.84182,N,07336.89019,W,161135.00,A,A*68
12:11:36.098 -> $GNRMC,161136.00,A,4531.84181,N,07336.89024,W,0.007,,190719,,,A*7F
12:11:36.165 -> $GNVTG,,T,,M,0.007,N,0.012,K,A*39
12:11:36.198 -> $GNGGA,161136.00,4531.84181,N,07336.89024,W,1,12,0.95,77.1,M,-32.7,M,,*46
12:11:36.264 -> $GNGSA,A,3,01,19,28,11,22,17,,,,,,,1.82,0.95,1.55*1F
12:11:36.331 -> $GNGSA,A,3,79,78,77,87,88,71,72,,,,,,1.82,0.95,1.55*17
12:11:36.397 -> $GPGSV,3,1,11,01,29,051,41,03,39,091,,06,37,225,,11,17,066,26*74
12:11:36.464 -> $GPGSV,3,2,11,17,71,320,53,18,05,052,13,19,54,291,49,22,32,065,36*7F
12:11:36.530 -> $GPGSV,3,3,11,24,17,310,,28,64,155,47,30,01,189,*43
12:11:36.563 -> $GLGSV,3,1,10,65,04,135,,71,20,043,42,72,20,095,27,77,40,200,40*6F
12:11:36.663 -> $GLGSV,3,2,10,78,56,286,46,79,17,332,27,81,10,257,07,86,09,061,26*63
12:11:36.729 -> $GLGSV,3,3,10,87,59,023,50,88,52,283,46*6F
12:11:36.763 -> $GNGLL,4531.84181,N,07336.89024,W,161136.00,A,A*66
12:11:37.095 -> $GNRMC,161137.00,A,4531.84180,N,07336.89028,W,0.025,,190719,,,A*73
12:11:37.161 -> $GNVTG,,T,,M,0.025,N,0.045,K,A*3B
12:11:37.195 -> $GNGGA,161137.00,4531.84180,N,07336.89028,W,1,12,0.82,77.0,M,-32.7,M,,*4D
12:11:37.261 -> $GNGSA,A,3,01,19,28,11,22,17,,,,,,,1.37,0.82,1.10*16
12:11:37.361 -> $GNGSA,A,3,79,78,77,81,87,88,71,72,,,,,1.37,0.82,1.10*17
12:11:37.394 -> $GPGSV,3,1,11,01,29,051,41,03,39,091,,06,37,225,,11,17,066,26*74
12:11:37.494 -> $GPGSV,3,2,11,17,71,320,53,18,04,052,12,19,54,291,49,22,32,065,37*7E
12:11:37.527 -> $GPGSV,3,3,11,24,17,310,,28,64,155,47,30,01,189,*43
12:11:37.593 -> $GLGSV,3,1,10,65,04,135,,71,20,043,42,72,20,095,27,77,40,200,40*6F
12:11:37.693 -> $GLGSV,3,2,10,78,56,286,46,79,17,332,27,81,10,257,09,86,09,061,26*6D
12:11:37.759 -> $GLGSV,3,3,10,87,59,023,50,88,52,283,46*6F
12:11:37.793 -> $GNGLL,4531.84180,N,07336.89028,W,161137.00,A,A*6A
12:11:38.125 -> $GNRMC,161138.00,A,4531.84179,N,07336.89031,W,0.015,,190719,,,A*71
12:11:38.191 -> $GNVTG,,T,,M,0.015,N,0.027,K,A*3C
12:11:38.224 -> $GNGGA,161138.00,4531.84179,N,07336.89031,W,1,12,0.95,76.9,M,-32.7,M,,*42
12:11:38.291 -> $GNGSA,A,3,01,19,28,11,22,17,,,,,,,1.82,0.95,1.55*1F
12:11:38.357 -> $GNGSA,A,3,79,78,77,81,87,88,71,72,,,,,1.82,0.95,1.55*1E
12:11:38.424 -> $GPGSV,3,1,11,01,29,051,41,03,39,091,,06,37,225,,11,17,066,26*74
12:11:38.490 -> $GPGSV,3,2,11,17,71,320,53,18,04,052,10,19,54,292,49,22,32,065,36*7E
12:11:38.556 -> $GPGSV,3,3,11,24,17,310,,28,64,155,47,30,01,189,*43
12:11:38.590 -> $GLGSV,3,1,10,65,04,135,,71,20,043,42,72,20,095,28,77,40,200,40*60
12:11:38.689 -> $GLGSV,3,2,10,78,56,286,46,79,17,332,25,81,10,257,10,86,09,061,26*67
12:11:38.756 -> $GLGSV,3,3,10,87,59,023,49,88,52,283,46*67
12:11:38.789 -> $GNGLL,4531.84179,N,07336.89031,W,161138.00,A,A*6B
12:11:39.121 -> $GNRMC,161139.00,A,4531.84180,N,07336.89033,W,0.020,,190719,,,A*72
12:11:39.188 -> $GNVTG,,T,,M,0.020,N,0.037,K,A*3B
12:11:39.221 -> $GNGGA,161139.00,4531.84180,N,07336.89033,W,1,12,0.82,76.8,M,-32.7,M,,*40
12:11:39.287 -> $GNGSA,A,3,01,19,28,11,22,17,,,,,,,1.37,0.82,1.10*16
12:11:39.354 -> $GNGSA,A,3,79,78,77,81,87,88,71,72,,,,,1.37,0.82,1.10*17
12:11:39.420 -> $GPGSV,3,1,12,01,29,051,41,03,39,091,,06,37,225,,11,17,066,25*74
12:11:39.486 -> $GPGSV,3,2,12,16,,,34,17,71,320,53,18,04,052,09,19,54,292,49*42
12:11:39.553 -> $GPGSV,3,3,12,22,32,065,35,24,17,310,,28,64,155,47,30,01,189,*74
12:11:39.619 -> $GLGSV,3,1,10,65,04,135,,71,20,043,42,72,20,095,27,77,40,200,40*6F
12:11:39.686 -> $GLGSV,3,2,10,78,56,286,46,79,17,332,26,81,10,257,15,86,09,061,26*61
12:11:39.752 -> $GLGSV,3,3,10,87,59,023,49,88,52,283,47*66
12:11:39.786 -> $GNGLL,4531.84180,N,07336.89033,W,161139.00,A,A*6E
12:11:40.118 -> $GNRMC,161140.00,A,4531.84179,N,07336.89035,W,0.042,,190719,,,A*78
12:11:40.184 -> $GNVTG,,T,,M,0.042,N,0.078,K,A*34
12:11:40.217 -> $GNGGA,161140.00,4531.84179,N,07336.89035,W,1,12,0.82,76.6,M,-32.7,M,,*40
12:11:40.284 -> $GNGSA,A,3,01,19,28,11,22,17,,,,,,,1.37,0.82,1.10*16
12:11:40.350 -> $GNGSA,A,3,79,78,77,81,87,88,71,72,,,,,1.37,0.82,1.10*17
12:11:40.417 -> $GPGSV,3,1,11,01,29,051,41,03,39,091,,06,37,225,,11,17,066,24*76
12:11:40.483 -> $GPGSV,3,2,11,17,71,320,53,18,04,052,10,19,54,292,49,22,32,065,36*7E
12:11:40.550 -> $GPGSV,3,3,11,24,17,310,,28,64,155,47,30,01,189,*43
12:11:40.583 -> $GLGSV,3,1,10,65,04,135,,71,20,043,43,72,20,095,26,77,40,200,40*6F
12:11:40.683 -> $GLGSV,3,2,10,78,56,286,46,79,17,332,26,81,10,257,17,86,09,061,27*62
12:11:40.749 -> $GLGSV,3,3,10,87,59,023,49,88,52,283,47*66
12:11:40.782 -> $GNGLL,4531.84179,N,07336.89035,W,161140.00,A,A*60
12:11:41.115 -> $GNRMC,161141.00,A,4531.84179,N,07336.89037,W,0.022,,190719,,,A*7D
12:11:41.181 -> $GNVTG,,T,,M,0.022,N,0.040,K,A*39
12:11:41.214 -> $GNGGA,161141.00,4531.84179,N,07336.89037,W,1,12,0.82,76.5,M,-32.7,M,,*40
12:11:41.281 -> $GNGSA,A,3,01,19,28,11,22,17,,,,,,,1.37,0.82,1.10*16
12:11:41.347 -> $GNGSA,A,3,79,78,77,81,87,88,71,72,,,,,1.37,0.82,1.10*17
12:11:41.414 -> $GPGSV,3,1,11,01,29,051,41,03,39,091,,06,37,225,,11,17,066,24*76
12:11:41.480 -> $GPGSV,3,2,11,17,71,320,53,18,04,052,10,19,54,292,49,22,32,065,36*7E
12:11:41.546 -> $GPGSV,3,3,11,24,17,310,27,28,64,155,47,30,01,189,*46
12:11:41.613 -> $GLGSV,3,1,10,65,04,135,,71,20,043,43,72,20,095,24,77,40,200,41*6C
12:11:41.679 -> $GLGSV,3,2,10,78,56,286,46,79,17,332,26,81,10,257,16,86,09,061,26*62
12:11:41.746 -> $GLGSV,3,3,10,87,59,023,49,88,52,283,47*66
12:11:41.779 -> $GNGLL,4531.84179,N,07336.89037,W,161141.00,A,A*63
12:11:42.111 -> $GNRMC,161142.00,A,4531.84179,N,07336.89037,W,0.011,,190719,,,A*7E
12:11:42.178 -> $GNVTG,,T,,M,0.011,N,0.020,K,A*3F
12:11:42.211 -> $GNGGA,161142.00,4531.84179,N,07336.89037,W,1,12,0.78,76.4,M,-32.7,M,,*47
12:11:42.277 -> $GNGSA,A,3,01,19,28,11,24,22,17,,,,,,1.31,0.78,1.05*17
12:11:42.344 -> $GNGSA,A,3,79,78,77,81,87,88,71,72,,,,,1.31,0.78,1.05*10
12:11:42.410 -> $GPGSV,3,1,11,01,29,051,41,03,39,091,,06,37,225,,11,17,066,26*74
12:11:42.476 -> $GPGSV,3,2,11,17,71,320,53,18,04,052,10,19,54,292,49,22,32,065,36*7E
12:11:42.543 -> $GPGSV,3,3,11,24,17,310,27,28,64,155,47,30,01,189,*46
12:11:42.609 -> $GLGSV,3,1,10,65,04,135,,71,20,043,43,72,20,095,23,77,40,200,41*6B
12:11:42.676 -> $GLGSV,3,2,10,78,56,286,46,79,17,332,26,81,10,257,21,86,09,061,26*66
12:11:42.742 -> $GLGSV,3,3,10,87,59,023,50,88,52,283,47*6E
12:11:42.775 -> $GNGLL,4531.84179,N,07336.89037,W,161142.00,A,A*60
12:11:43.108 -> $GNRMC,161143.00,A,4531.84180,N,07336.89037,W,0.010,,190719,,,A*78
12:11:43.174 -> $GNVTG,,T,,M,0.010,N,0.018,K,A*35
12:11:43.207 -> $GNGGA,161143.00,4531.84180,N,07336.89037,W,1,12,0.83,76.3,M,-32.7,M,,*43
12:11:43.274 -> $GNGSA,A,3,01,19,28,11,22,17,,,,,,,1.40,0.83,1.13*14
12:11:43.340 -> $GNGSA,A,3,79,78,77,81,87,88,71,72,,,,,1.40,0.83,1.13*15
12:11:43.407 -> $GPGSV,3,1,11,01,29,051,41,03,39,091,,06,37,225,,11,17,066,26*74
12:11:43.473 -> $GPGSV,3,2,11,17,71,320,53,18,04,052,05,19,54,292,49,22,32,065,35*79
12:11:43.539 -> $GPGSV,3,3,11,24,17,309,,28,64,155,47,30,01,189,*4B
12:11:43.573 -> $GLGSV,3,1,10,65,04,135,,71,20,043,41,72,20,095,21,77,40,200,41*6B
12:11:43.672 -> $GLGSV,3,2,10,78,56,286,46,79,17,332,25,81,10,257,25,86,09,061,27*60
12:11:43.739 -> $GLGSV,3,3,10,87,59,023,50,88,52,283,47*6E
12:11:43.772 -> $GNGLL,4531.84180,N,07336.89037,W,161143.00,A,A*67
12:11:44.104 -> $GNRMC,161144.00,A,4531.84181,N,07336.89038,W,0.013,,190719,,,A*72
12:11:44.171 -> $GNVTG,,T,,M,0.013,N,0.024,K,A*39
12:11:44.204 -> $GNGGA,161144.00,4531.84181,N,07336.89038,W,1,12,0.78,76.2,M,-32.7,M,,*4F
12:11:44.270 -> $GNGSA,A,3,01,19,28,11,24,22,17,,,,,,1.31,0.78,1.05*17
12:11:44.337 -> $GNGSA,A,3,79,78,77,81,87,88,71,72,,,,,1.31,0.78,1.05*10
12:11:44.403 -> $GPGSV,3,1,11,01,29,051,42,03,39,091,,06,37,225,,11,17,066,27*76
12:11:44.470 -> $GPGSV,3,2,11,17,71,320,53,18,04,052,10,19,54,292,49,22,32,065,34*7C
12:11:44.536 -> $GPGSV,3,3,11,24,17,309,30,28,64,155,47,30,01,189,*48
12:11:44.603 -> $GLGSV,3,1,10,65,04,135,,71,20,043,41,72,20,095,23,77,40,200,41*69
12:11:44.669 -> $GLGSV,3,2,10,78,56,286,46,79,17,332,22,81,10,257,25,86,09,061,27*67
12:11:44.736 -> $GLGSV,3,3,10,87,59,023,50,88,52,283,47*6E
12:11:44.769 -> $GNGLL,4531.84181,N,07336.89038,W,161144.00,A,A*6E
12:11:45.101 -> $GNRMC,161145.00,A,4531.84182,N,07336.89037,W,0.006,,190719,,,A*7B
12:11:45.167 -> $GNVTG,,T,,M,0.006,N,0.011,K,A*3B
12:11:45.200 -> $GNGGA,161145.00,4531.84182,N,07336.89037,W,1,12,0.78,76.1,M,-32.7,M,,*41
12:11:45.267 -> $GNGSA,A,3,01,19,28,11,24,22,17,,,,,,1.31,0.78,1.05*17
12:11:45.333 -> $GNGSA,A,3,79,78,77,81,87,88,71,72,,,,,1.31,0.78,1.05*10
12:11:45.400 -> $GPGSV,3,1,11,01,29,051,42,03,39,091,,06,37,225,,11,17,066,27*76
12:11:45.466 -> $GPGSV,3,2,11,17,71,320,53,18,04,052,09,19,54,292,49,22,32,065,33*73
12:11:45.533 -> $GPGSV,3,3,11,24,17,309,30,28,63,155,47,30,01,189,*4F
12:11:45.599 -> $GLGSV,3,1,10,65,04,135,,71,20,043,42,72,20,095,25,77,40,200,43*6E
12:11:45.666 -> $GLGSV,3,2,10,78,56,286,46,79,17,332,20,81,10,257,23,86,09,061,26*62
12:11:45.765 -> $GLGSV,3,3,10,87,59,023,50,88,52,283,47*6E
12:11:45.798 -> $GNGLL,4531.84182,N,07336.89037,W,161145.00,A,A*63
12:11:46.097 -> $GNRMC,161146.00,A,4531.84184,N,07336.89039,W,0.021,,190719,,,A*75
12:11:46.164 -> $GNVTG,,T,,M,0.021,N,0.039,K,A*34
12:11:46.197 -> $GNGGA,161146.00,4531.84184,N,07336.89039,W,1,12,0.79,76.1,M,-32.7,M,,*4B
12:11:46.263 -> $GNGSA,A,3,01,19,28,24,22,17,,,,,,,1.34,0.79,1.08*1E
12:11:46.330 -> $GNGSA,A,3,79,78,77,81,87,88,71,72,,,,,1.34,0.79,1.08*19
12:11:46.396 -> $GPGSV,3,1,11,01,29,051,42,03,39,091,,06,37,225,,11,17,066,*73
12:11:46.463 -> $GPGSV,3,2,11,17,71,320,53,18,04,052,06,19,54,292,49,22,32,065,36*79
12:11:46.529 -> $GPGSV,3,3,11,24,17,309,29,28,63,155,47,30,01,189,*47
12:11:46.562 -> $GLGSV,3,1,10,65,04,135,,71,20,043,43,72,20,095,30,77,40,200,43*6B
12:11:46.662 -> $GLGSV,3,2,10,78,56,286,46,79,17,332,22,81,10,257,23,86,09,061,26*60
12:11:46.728 -> $GLGSV,3,3,10,87,59,023,50,88,52,283,47*6E
12:11:46.762 -> $GNGLL,4531.84184,N,07336.89039,W,161146.00,A,A*68
12:11:47.127 -> $GNRMC,161147.00,A,4531.84185,N,07336.89040,W,0.017,,190719,,,A*7E
12:11:47.193 -> $GNVTG,,T,,M,0.017,N,0.031,K,A*39
12:11:47.227 -> $GNGGA,161147.00,4531.84185,N,07336.89040,W,1,12,0.79,76.0,M,-32.7,M,,*44
12:11:47.293 -> $GNGSA,A,3,01,19,28,24,22,17,,,,,,,1.34,0.79,1.08*1E
12:11:47.360 -> $GNGSA,A,3,79,78,77,81,87,88,71,72,,,,,1.34,0.79,1.08*19
12:11:47.426 -> $GPGSV,3,1,11,01,29,051,40,03,39,091,,06,37,225,,11,17,066,*71
12:11:47.492 -> $GPGSV,3,2,11,17,71,320,53,18,04,052,08,19,54,292,49,22,32,065,32*73
12:11:47.559 -> $GPGSV,3,3,11,24,17,309,29,28,63,155,47,30,01,189,*47
12:11:47.592 -> $GLGSV,3,1,10,65,04,135,23,71,20,043,43,72,20,095,29,77,40,200,43*62
12:11:47.691 -> $GLGSV,3,2,10,78,56,286,47,79,17,332,23,81,10,257,25,86,09,061,24*64
12:11:47.758 -> $GLGSV,3,3,10,87,59,023,51,88,52,283,48*60
12:11:47.791 -> $GNGLL,4531.84185,N,07336.89040,W,161147.00,A,A*66
12:11:48.123 -> $GNRMC,161148.00,A,4531.84186,N,07336.89040,W,0.010,,190719,,,A*75
12:11:48.189 -> $GNVTG,,T,,M,0.010,N,0.019,K,A*34
12:11:48.223 -> $GNGGA,161148.00,4531.84186,N,07336.89040,W,1,12,0.98,75.9,M,-32.7,M,,*4D
12:11:48.289 -> $GNGSA,A,3,01,19,28,24,22,17,,,,,,,1.78,0.98,1.49*1C
12:11:48.356 -> $GNGSA,A,3,79,78,77,81,87,88,71,72,,,,,1.78,0.98,1.49*1B
12:11:48.422 -> $GPGSV,3,1,11,01,29,051,42,03,39,091,,06,37,225,,11,17,066,*73
12:11:48.488 -> $GPGSV,3,2,11,17,71,320,54,18,04,052,10,19,54,292,49,22,32,065,33*7C
12:11:48.555 -> $GPGSV,3,3,11,24,17,309,30,28,63,155,47,30,01,189,*4F
12:11:48.588 -> $GLGSV,3,1,10,65,04,135,23,71,20,043,43,72,20,095,20,77,40,200,42*6A
12:11:48.688 -> $GLGSV,3,2,10,78,56,286,47,79,17,332,23,81,10,257,23,86,09,061,25*63
12:11:48.754 -> $GLGSV,3,3,10,87,59,023,50,88,52,283,47*6E
12:11:48.787 -> $GNGLL,4531.84186,N,07336.89040,W,161148.00,A,A*6A
12:11:49.120 -> $GNRMC,161149.00,A,4531.84187,N,07336.89041,W,0.023,,190719,,,A*74
12:11:49.186 -> $GNVTG,,T,,M,0.023,N,0.042,K,A*3A
12:11:49.220 -> $GNGGA,161149.00,4531.84187,N,07336.89041,W,1,12,0.98,75.8,M,-32.7,M,,*4D
12:11:49.286 -> $GNGSA,A,3,01,19,28,24,22,17,,,,,,,1.78,0.98,1.49*1C
12:11:49.352 -> $GNGSA,A,3,79,78,77,81,87,88,71,72,,,,,1.78,0.98,1.49*1B
12:11:49.419 -> $GPGSV,3,1,11,01,29,051,42,03,39,091,,06,37,225,,11,17,066,*73
12:11:49.485 -> $GPGSV,3,2,11,17,71,320,53,18,04,052,10,19,54,292,50,22,32,065,32*72
12:11:49.552 -> $GPGSV,3,3,11,24,17,309,31,28,63,155,47,30,01,189,*4E
12:11:49.585 -> $GLGSV,3,1,10,65,04,135,22,71,20,043,44,72,20,095,22,77,40,200,42*6E
12:11:49.684 -> $GLGSV,3,2,10,78,56,286,48,79,17,332,21,81,10,257,26,86,09,061,26*68
12:11:49.751 -> $GLGSV,3,3,10,87,59,023,51,88,52,283,47*6F
12:11:49.784 -> $GNGLL,4531.84187,N,07336.89041,W,161149.00,A,A*6B
12:11:50.116 -> $GNRMC,161150.00,A,4531.84189,N,07336.89039,W,0.027,,190719,,,A*79
12:11:50.183 -> $GNVTG,,T,,M,0.027,N,0.049,K,A*35
12:11:50.216 -> $GNGGA,161150.00,4531.84189,N,07336.89039,W,1,12,0.88,75.7,M,-32.7,M,,*4A
12:11:50.282 -> $GNGSA,A,3,01,19,28,24,22,17,,,,,,,1.45,0.88,1.16*19
12:11:50.349 -> $GNGSA,A,3,79,78,77,81,87,88,71,72,,,,,1.45,0.88,1.16*1E
12:11:50.415 -> $GPGSV,3,1,11,01,29,051,41,03,39,091,,06,37,225,,11,17,066,26*74
12:11:50.482 -> $GPGSV,3,2,11,17,71,320,53,18,04,052,11,19,54,292,50,22,32,065,26*76
12:11:50.548 -> $GPGSV,3,3,11,24,17,309,33,28,63,155,47,30,01,189,*4C
12:11:50.614 -> $GLGSV,3,1,10,65,04,135,22,71,20,043,45,72,20,095,22,77,40,200,42*6F
12:11:50.681 -> $GLGSV,3,2,10,78,56,286,47,79,17,332,20,81,10,257,28,86,09,061,25*6B
12:11:50.747 -> $GLGSV,3,3,10,87,59,023,51,88,52,283,47*6F
12:11:50.780 -> $GNGLL,4531.84189,N,07336.89039,W,161150.00,A,A*62
12:11:51.112 -> $GNRMC,161151.00,A,4531.84192,N,07336.89037,W,0.020,,190719,,,A*7B
12:11:51.179 -> $GNVTG,,T,,M,0.020,N,0.038,K,A*34
12:11:51.212 -> $GNGGA,161151.00,4531.84192,N,07336.89037,W,1,12,0.88,75.7,M,-32.7,M,,*4F
12:11:51.278 -> $GNGSA,A,3,01,19,28,24,22,17,,,,,,,1.46,0.88,1.16*1A
12:11:51.345 -> $GNGSA,A,3,79,78,77,81,87,88,71,72,,,,,1.46,0.88,1.16*1D
12:11:51.445 -> $GPGSV,3,1,11,01,29,051,41,03,39,091,33,06,37,225,,11,17,066,27*75
12:11:51.478 -> $GPGSV,3,2,11,17,71,320,53,18,04,052,11,19,54,292,49,22,32,065,26*7E
12:11:51.577 -> $GPGSV,3,3,11,24,17,309,32,28,63,155,47,30,01,189,*4D
12:11:51.644 -> $GLGSV,3,1,10,65,04,135,22,71,20,043,44,72,20,095,21,77,40,200,42*6D
12:11:51.710 -> $GLGSV,3,2,10,78,56,286,48,79,17,332,20,81,10,257,29,86,09,061,24*64
12:11:51.777 -> $GLGSV,3,3,10,87,59,023,51,88,52,283,47*6F
12:11:51.810 -> $GNGLL,4531.84192,N,07336.89037,W,161151.00,A,A*67
12:11:52.109 -> $GNRMC,161152.00,A,4531.84195,N,07336.89035,W,0.012,,190719,,,A*7C
12:11:52.175 -> $GNVTG,,T,,M,0.012,N,0.021,K,A*3D
12:11:52.208 -> $GNGGA,161152.00,4531.84195,N,07336.89035,W,1,12,0.83,75.7,M,-32.7,M,,*42
12:11:52.275 -> $GNGSA,A,3,01,19,28,24,22,03,17,,,,,,1.42,0.83,1.15*15
12:11:52.341 -> $GNGSA,A,3,79,78,77,81,87,88,71,72,,,,,1.42,0.83,1.15*11
12:11:52.408 -> $GPGSV,3,1,11,01,29,051,41,03,39,091,33,06,37,225,,11,17,066,27*75
12:11:52.474 -> $GPGSV,3,2,11,17,71,320,53,18,04,052,11,19,54,292,49,22,32,065,33*7A
12:11:52.541 -> $GPGSV,3,3,11,24,17,309,33,28,63,155,47,30,01,189,*4C
12:11:52.607 -> $GLGSV,3,1,10,65,04,134,22,71,20,043,44,72,20,095,23,77,40,200,42*6E
12:11:52.674 -> $GLGSV,3,2,10,78,56,286,47,79,17,332,25,81,10,257,28,86,09,061,22*69
12:11:52.740 -> $GLGSV,3,3,10,87,59,023,50,88,52,283,47*6E
12:11:52.773 -> $GNGLL,4531.84195,N,07336.89035,W,161152.00,A,A*61
12:11:53.139 -> $GNRMC,161153.00,A,4531.84198,N,07336.89032,W,0.004,,190719,,,A*70
12:11:53.205 -> $GNVTG,,T,,M,0.004,N,0.008,K,A*31
12:11:53.238 -> $GNGGA,161153.00,4531.84198,N,07336.89032,W,1,12,0.83,75.7,M,-32.7,M,,*49
12:11:53.305 -> $GNGSA,A,3,01,19,28,24,22,03,17,,,,,,1.42,0.83,1.15*15
12:11:53.371 -> $GNGSA,A,3,79,78,77,81,87,88,71,72,,,,,1.42,0.83,1.15*11
12:11:53.437 -> $GPGSV,3,1,11,01,29,051,42,03,39,091,31,06,37,225,,11,17,066,*71
12:11:53.504 -> $GPGSV,3,2,11,17,71,320,53,18,04,052,15,19,54,292,50,22,32,065,33*76
12:11:53.570 -> $GPGSV,3,3,11,24,17,309,32,28,63,155,47,30,01,189,*4D
12:11:53.637 -> $GLGSV,3,1,10,65,04,134,23,71,20,043,43,72,20,095,25,77,40,200,42*6E
12:11:53.703 -> $GLGSV,3,2,10,78,56,286,47,79,17,332,26,81,10,257,29,86,09,061,22*6B
12:11:53.769 -> $GLGSV,3,3,10,87,59,023,50,88,52,283,47*6E
12:11:53.803 -> $GNGLL,4531.84198,N,07336.89032,W,161153.00,A,A*6A
12:11:54.135 -> $GNRMC,161154.00,A,4531.84200,N,07336.89031,W,0.020,,190719,,,A*70
12:11:54.201 -> $GNVTG,,T,,M,0.020,N,0.036,K,A*3A
12:11:54.235 -> $GNGGA,161154.00,4531.84200,N,07336.89031,W,1,12,0.88,75.7,M,-32.7,M,,*44
12:11:54.301 -> $GNGSA,A,3,01,19,28,24,22,03,17,,,,,,1.62,0.88,1.36*1D
12:11:54.367 -> $GNGSA,A,3,79,78,77,81,87,88,71,72,,,,,1.62,0.88,1.36*19
12:11:54.434 -> $GPGSV,3,1,11,01,29,051,43,03,39,091,31,06,37,225,,11,17,066,*70
12:11:54.500 -> $GPGSV,3,2,11,17,71,320,53,18,04,052,14,19,54,292,49,22,32,065,27*7A
12:11:54.567 -> $GPGSV,3,3,11,24,17,309,31,28,63,155,46,30,01,189,*4F
12:11:54.633 -> $GLGSV,3,1,10,65,04,134,22,71,20,043,45,72,20,095,26,77,40,200,41*69
12:11:54.700 -> $GLGSV,3,2,10,78,56,286,46,79,17,332,25,81,10,257,27,86,09,061,20*65
12:11:54.766 -> $GLGSV,3,3,10,87,59,023,51,88,52,283,47*6F
12:11:54.799 -> $GNGLL,4531.84200,N,07336.89031,W,161154.00,A,A*6C
12:11:55.132 -> $GNRMC,161155.00,A,4531.84201,N,07336.89030,W,0.022,,190719,,,A*73
12:11:55.198 -> $GNVTG,,T,,M,0.022,N,0.040,K,A*39
12:11:55.231 -> $GNGGA,161155.00,4531.84201,N,07336.89030,W,1,12,0.94,75.7,M,-32.7,M,,*48
12:11:55.298 -> $GNGSA,A,3,01,19,28,24,22,03,17,,,,,,1.75,0.94,1.48*1F
12:11:55.364 -> $GNGSA,A,3,79,78,77,81,87,88,71,72,,,,,1.75,0.94,1.48*1B
12:11:55.430 -> $GPGSV,3,1,11,01,29,051,42,03,39,091,31,06,37,225,,11,17,066,*71
12:11:55.497 -> $GPGSV,3,2,11,17,71,320,53,18,04,052,17,19,54,292,48,22,32,065,36*78
12:11:55.563 -> $GPGSV,3,3,11,24,17,309,29,28,63,155,47,30,01,189,*47
12:11:55.630 -> $GLGSV,3,1,10,65,04,134,22,71,20,043,45,72,20,095,25,77,40,200,42*69
12:11:55.696 -> $GLGSV,3,2,10,78,56,286,45,79,17,332,24,81,10,257,26,86,09,061,20*66
12:11:55.763 -> $GLGSV,3,3,10,87,59,023,51,88,52,283,47*6F
12:11:55.796 -> $GNGLL,4531.84201,N,07336.89030,W,161155.00,A,A*6D
12:11:56.128 -> $GNRMC,161156.00,A,4531.84204,N,07336.89026,W,0.008,,190719,,,A*7A
12:11:56.195 -> $GNVTG,,T,,M,0.008,N,0.014,K,A*30
12:11:56.228 -> $GNGGA,161156.00,4531.84204,N,07336.89026,W,1,12,0.94,75.6,M,-32.7,M,,*48
12:11:56.294 -> $GNGSA,A,3,01,19,28,24,22,03,17,,,,,,1.75,0.94,1.48*1F
12:11:56.361 -> $GNGSA,A,3,79,78,77,81,87,88,71,72,,,,,1.75,0.94,1.48*1B
12:11:56.427 -> $GPGSV,3,1,11,01,29,051,41,03,39,091,30,06,37,225,,11,17,066,27*76
12:11:56.493 -> $GPGSV,3,2,11,17,71,320,53,18,04,052,11,19,54,292,46,22,32,065,31*77
12:11:56.560 -> $GPGSV,3,3,11,24,17,309,28,28,63,155,47,30,01,189,*46
12:11:56.626 -> $GLGSV,3,1,10,65,04,134,23,71,20,043,46,72,20,095,22,77,40,200,43*6D
12:11:56.693 -> $GLGSV,3,2,10,78,56,286,45,79,17,332,23,81,10,257,25,86,09,061,22*60
12:11:56.759 -> $GLGSV,3,3,10,87,59,023,51,88,52,283,48*60
12:11:56.793 -> $GNGLL,4531.84204,N,07336.89026,W,161156.00,A,A*6C
12:11:57.125 -> $GNRMC,161157.00,A,4531.84209,N,07336.89022,W,0.014,,190719,,,A*7F
12:11:57.191 -> $GNVTG,,T,,M,0.014,N,0.026,K,A*3C
12:11:57.224 -> $GNGGA,161157.00,4531.84209,N,07336.89022,W,1,12,0.83,75.6,M,-32.7,M,,*46
12:11:57.291 -> $GNGSA,A,3,01,19,28,24,22,03,17,,,,,,1.42,0.83,1.15*15
12:11:57.357 -> $GNGSA,A,3,79,78,77,81,87,88,71,72,,,,,1.42,0.83,1.15*11
12:11:57.424 -> $GPGSV,3,1,11,01,29,051,41,03,39,091,31,06,37,225,,11,17,066,*72
12:11:57.490 -> $GPGSV,3,2,11,17,71,320,53,18,04,052,15,19,54,292,47,22,32,065,26*74
12:11:57.557 -> $GPGSV,3,3,11,24,17,309,28,28,63,155,47,30,01,189,*46
12:11:57.623 -> $GLGSV,3,1,10,65,04,134,23,71,20,043,45,72,20,095,23,77,40,200,43*6F
12:11:57.690 -> $GLGSV,3,2,10,78,56,286,44,79,17,332,21,81,10,257,27,86,09,061,25*66
12:11:57.756 -> $GLGSV,3,3,10,87,59,023,51,88,52,283,47*6F
12:11:57.789 -> $GNGLL,4531.84209,N,07336.89022,W,161157.00,A,A*64
12:11:58.122 -> $GNRMC,161158.00,A,4531.84213,N,07336.89017,W,0.011,,190719,,,A*78
12:11:58.188 -> $GNVTG,,T,,M,0.011,N,0.020,K,A*3F
12:11:58.221 -> $GNGGA,161158.00,4531.84213,N,07336.89017,W,1,12,0.83,75.5,M,-32.7,M,,*47
12:11:58.288 -> $GNGSA,A,3,01,19,28,24,22,03,17,,,,,,1.42,0.83,1.15*15
12:11:58.354 -> $GNGSA,A,3,79,78,77,81,87,88,71,72,,,,,1.42,0.83,1.15*11
12:11:58.420 -> $GPGSV,3,1,11,01,29,051,41,03,39,091,33,06,37,225,,11,17,066,28*7A
12:11:58.487 -> $GPGSV,3,2,11,17,71,320,53,18,04,052,18,19,54,292,46,22,32,065,25*7B
12:11:58.553 -> $GPGSV,3,3,11,24,17,309,29,28,63,155,47,30,01,189,*47
12:11:58.620 -> $GLGSV,3,1,10,65,04,134,23,71,20,042,45,72,20,095,25,77,40,200,44*6F
12:11:58.686 -> $GLGSV,3,2,10,78,56,286,44,79,17,332,29,81,10,257,29,86,09,061,25*60
12:11:58.752 -> $GLGSV,3,3,10,87,59,023,51,88,52,283,47*6F
12:11:58.786 -> $GNGLL,4531.84213,N,07336.89017,W,161158.00,A,A*66
12:11:59.118 -> $GNRMC,161159.00,A,4531.84218,N,07336.89014,W,0.046,,190719,,,A*73
12:11:59.184 -> $GNVTG,,T,,M,0.046,N,0.085,K,A*32
12:11:59.217 -> $GNGGA,161159.00,4531.84218,N,07336.89014,W,1,12,0.76,75.5,M,-32.7,M,,*44
12:11:59.284 -> $GNGSA,A,3,01,19,28,11,24,22,03,17,,,,,1.29,0.76,1.05*13
12:11:59.350 -> $GNGSA,A,3,79,78,77,81,87,88,71,72,,,,,1.29,0.76,1.05*17
12:11:59.416 -> $GPGSV,3,1,11,01,29,051,42,03,39,091,34,06,37,225,,11,17,066,27*71
12:11:59.483 -> $GPGSV,3,2,11,17,71,320,53,18,04,052,19,19,54,292,46,22,32,065,30*7E
12:11:59.549 -> $GPGSV,3,3,11,24,17,309,29,28,63,155,47,30,01,189,*47
12:11:59.615 -> $GLGSV,3,1,10,65,04,134,23,71,20,042,45,72,20,094,26,77,40,200,44*6D
12:11:59.681 -> $GLGSV,3,2,10,78,56,286,46,79,17,332,22,81,10,257,28,86,09,061,24*69
12:11:59.748 -> $GLGSV,3,3,10,87,59,023,51,88,52,283,47*6F
12:11:59.781 -> $GNGLL,4531.84218,N,07336.89014,W,161159.00,A,A*6F
12:12:00.113 -> $GNRMC,161200.00,A,4531.84222,N,07336.89012,W,0.012,,190719,,,A*72
12:12:00.180 -> $GNVTG,,T,,M,0.012,N,0.022,K,A*3E
12:12:00.213 -> $GNGGA,161200.00,4531.84222,N,07336.89012,W,1,12,0.91,75.5,M,-32.7,M,,*4D
12:12:00.279 -> $GNGSA,A,3,01,19,28,11,24,22,03,17,,,,,1.50,0.91,1.19*19
12:12:00.346 -> $GNGSA,A,3,79,78,77,81,87,88,71,72,,,,,1.50,0.91,1.19*1D
12:12:00.412 -> $GPGSV,3,1,11,01,29,051,42,03,39,091,36,06,37,225,,11,17,066,27*73
12:12:00.479 -> $GPGSV,3,2,11,17,71,320,53,18,04,052,20,19,54,292,45,22,32,065,22*74
12:12:00.545 -> $GPGSV,3,3,11,24,17,309,28,28,63,155,47,30,01,189,*46
12:12:00.612 -> $GLGSV,3,1,10,65,04,134,21,71,20,042,44,72,20,094,32,77,40,200,44*6B
12:12:00.678 -> $GLGSV,3,2,10,78,56,286,45,79,17,332,22,81,10,257,28,86,09,061,23*6D
12:12:00.744 -> $GLGSV,3,3,10,87,59,023,51,88,52,283,47*6F
12:12:00.778 -> $GNGLL,4531.84222,N,07336.89012,W,161200.00,A,A*6F
12:12:01.143 -> $GNRMC,161201.00,A,4531.84224,N,07336.89012,W,0.005,,190719,,,A*73
12:12:01.209 -> $GNVTG,,T,,M,0.005,N,0.009,K,A*31
12:12:01.243 -> $GNGGA,161201.00,4531.84224,N,07336.89012,W,1,12,0.94,75.5,M,-32.7,M,,*4F
12:12:01.309 -> $GNGSA,A,3,01,19,28,24,22,03,17,,,,,,1.75,0.94,1.48*1F
12:12:01.375 -> $GNGSA,A,3,79,78,77,81,87,88,71,72,,,,,1.75,0.94,1.48*1B
12:12:01.442 -> $GPGSV,3,1,11,01,29,051,42,03,39,091,36,06,37,225,,11,17,066,*76
12:12:01.508 -> $GPGSV,3,2,11,17,71,320,53,18,04,052,20,19,54,292,46,22,32,065,30*74
12:12:01.574 -> $GPGSV,3,3,11,24,17,309,28,28,63,155,47,30,01,189,*46
12:12:01.641 -> $GLGSV,3,1,10,65,04,134,21,71,20,042,45,72,20,094,26,77,40,200,43*68
12:12:01.707 -> $GLGSV,3,2,10,78,56,286,45,79,17,332,23,81,10,257,31,86,09,061,23*64
12:12:01.774 -> $GLGSV,3,3,10,87,59,023,51,88,52,283,47*6F
12:12:01.807 -> $GNGLL,4531.84224,N,07336.89012,W,161201.00,A,A*68
12:12:02.106 -> $GNRMC,161202.00,A,4531.84227,N,07336.89011,W,0.016,,190719,,,A*72
12:12:02.172 -> $GNVTG,,T,,M,0.016,N,0.030,K,A*39
12:12:02.206 -> $GNGGA,161202.00,4531.84227,N,07336.89011,W,1,12,0.98,75.5,M,-32.7,M,,*40
12:12:02.272 -> $GNGSA,A,3,01,19,28,22,03,17,,,,,,,1.61,0.98,1.28*16
12:12:02.339 -> $GNGSA,A,3,79,78,77,81,87,88,71,72,,,,,1.61,0.98,1.28*14
12:12:02.405 -> $GPGSV,3,1,11,01,29,051,42,03,39,091,35,06,37,225,,11,17,066,*75
12:12:02.472 -> $GPGSV,3,2,11,17,71,320,53,18,04,052,21,19,54,292,46,22,32,065,30*75
12:12:02.538 -> $GPGSV,3,3,11,24,17,309,,28,63,155,47,30,01,189,*4C
12:12:02.571 -> $GLGSV,3,1,10,65,04,134,21,71,20,042,45,72,20,094,26,77,40,200,43*68
12:12:02.671 -> $GLGSV,3,2,10,78,56,286,45,79,17,332,20,81,10,257,33,86,09,061,23*65
12:12:02.737 -> $GLGSV,3,3,10,87,59,023,51,88,52,283,47*6F
12:12:02.771 -> $GNGLL,4531.84227,N,07336.89011,W,161202.00,A,A*6B
12:12:03.103 -> $GNRMC,161203.00,A,4531.84229,N,07336.89009,W,0.018,,190719,,,A*7A
12:12:03.169 -> $GNVTG,,T,,M,0.018,N,0.033,K,A*34
12:12:03.202 -> $GNGGA,161203.00,4531.84229,N,07336.89009,W,1,12,0.98,75.6,M,-32.7,M,,*45
12:12:03.269 -> $GNGSA,A,3,01,19,28,22,03,17,,,,,,,1.61,0.98,1.28*16
12:12:03.335 -> $GNGSA,A,3,79,78,77,81,87,88,71,72,,,,,1.61,0.98,1.28*14
12:12:03.402 -> $GPGSV,3,1,11,01,29,051,41,03,39,091,35,06,37,225,,11,17,066,*76
12:12:03.468 -> $GPGSV,3,2,11,17,71,320,52,18,04,052,21,19,54,292,46,22,32,065,30*74
12:12:03.534 -> $GPGSV,3,3,11,24,17,309,,28,63,155,45,30,01,189,*4E
12:12:03.568 -> $GLGSV,3,1,10,65,04,134,21,71,20,042,43,72,20,094,26,77,40,200,42*6F
12:12:03.667 -> $GLGSV,3,2,10,78,56,286,47,79,17,332,20,81,10,257,34,86,09,061,22*61
12:12:03.734 -> $GLGSV,3,3,10,87,59,023,50,88,52,283,47*6E
12:12:03.767 -> $GNGLL,4531.84229,N,07336.89009,W,161203.00,A,A*6D
12:12:04.132 -> $GNRMC,161204.00,A,4531.84231,N,07336.89007,W,0.047,,190719,,,A*70
12:12:04.199 -> $GNVTG,,T,,M,0.047,N,0.088,K,A*3E
12:12:04.232 -> $GNGGA,161204.00,4531.84231,N,07336.89007,W,1,12,1.13,75.5,M,-32.7,M,,*44
12:12:04.299 -> $GNGSA,A,3,01,19,28,11,22,03,17,,,,,,2.32,1.13,2.03*1B
12:12:04.365 -> $GNGSA,A,3,79,78,77,81,87,88,71,72,,,,,2.32,1.13,2.03*19
12:12:04.431 -> $GPGSV,3,1,11,01,29,051,42,03,39,091,37,06,37,225,,11,17,066,30*74
12:12:04.498 -> $GPGSV,3,2,11,17,71,320,52,18,04,052,21,19,54,292,47,22,32,065,31*74
12:12:04.564 -> $GPGSV,3,3,11,24,17,309,,28,63,155,45,30,01,189,*4E
12:12:04.631 -> $GLGSV,3,1,10,65,04,134,21,71,20,042,45,72,20,094,26,77,40,200,41*6A
12:12:04.697 -> $GLGSV,3,2,10,78,56,286,47,79,17,332,21,81,10,257,37,86,09,061,22*63
12:12:04.764 -> $GLGSV,3,3,10,87,59,023,50,88,52,283,48*61
12:12:04.797 -> $GNGLL,4531.84231,N,07336.89007,W,161204.00,A,A*6D
12:12:05.129 -> $GNRMC,161205.00,A,4531.84233,N,07336.89004,W,0.026,,190719,,,A*77
12:12:05.196 -> $GNVTG,,T,,M,0.026,N,0.049,K,A*34
12:12:05.229 -> $GNGGA,161205.00,4531.84233,N,07336.89004,W,1,12,0.98,75.7,M,-32.7,M,,*44
12:12:05.295 -> $GNGSA,A,3,01,19,28,11,22,03,17,,,,,,1.61,0.98,1.28*16
12:12:05.362 -> $GNGSA,A,3,79,78,77,81,87,88,71,72,,,,,1.61,0.98,1.28*14
12:12:05.428 -> $GPGSV,3,1,11,01,29,051,41,03,39,091,37,06,37,225,,11,17,066,28*7E
12:12:05.495 -> $GPGSV,3,2,11,17,71,320,52,18,04,052,22,19,54,292,50,22,32,065,32*72
12:12:05.561 -> $GPGSV,3,3,11,24,17,309,28,28,63,155,45,30,01,189,*44
12:12:05.628 -> $GLGSV,3,1,10,65,04,134,22,71,20,042,45,72,20,094,25,77,40,200,41*6A
12:12:05.694 -> $GLGSV,3,2,10,78,56,285,48,79,17,332,23,81,10,257,33,86,09,061,22*69
12:12:05.760 -> $GLGSV,3,3,10,87,59,023,50,88,52,283,47*6E
12:12:05.794 -> $GNGLL,4531.84233,N,07336.89004,W,161205.00,A,A*6D
12:12:06.126 -> $GNRMC,161206.00,A,4531.84236,N,07336.89000,W,0.016,,190719,,,A*76
12:12:06.192 -> $GNVTG,,T,,M,0.016,N,0.030,K,A*39
12:12:06.226 -> $GNGGA,161206.00,4531.84236,N,07336.89000,W,1,12,0.91,75.8,M,-32.7,M,,*40
12:12:06.292 -> $GNGSA,A,3,01,19,28,11,24,22,03,17,,,,,1.48,0.91,1.17*1E
12:12:06.358 -> $GNGSA,A,3,79,78,77,81,87,88,71,72,,,,,1.48,0.91,1.17*1A
12:12:06.425 -> $GPGSV,3,1,11,01,29,051,41,03,39,091,36,06,37,225,,11,17,066,28*7F
12:12:06.491 -> $GPGSV,3,2,11,17,71,320,52,18,04,052,23,19,54,292,49,22,32,065,33*7A
12:12:06.558 -> $GPGSV,3,3,11,24,17,309,27,28,63,155,45,30,01,189,*4B
12:12:06.624 -> $GLGSV,3,1,10,65,04,134,22,71,20,042,44,72,20,094,27,77,40,200,42*6A
12:12:06.691 -> $GLGSV,3,2,10,78,56,285,47,79,17,332,23,81,10,257,33,86,09,061,22*66
12:12:06.757 -> $GLGSV,3,3,10,87,59,023,49,88,52,283,45*64
12:12:06.790 -> $GNGLL,4531.84236,N,07336.89000,W,161206.00,A,A*6F
12:12:07.123 -> $GNRMC,161207.00,A,4531.84239,N,07336.88997,W,0.030,,190719,,,A*7A
12:12:07.189 -> $GNVTG,,T,,M,0.030,N,0.056,K,A*3D
12:12:07.222 -> $GNGGA,161207.00,4531.84239,N,07336.88997,W,1,12,1.13,75.9,M,-32.7,M,,*42
12:12:07.289 -> $GNGSA,A,3,01,19,28,11,24,22,03,17,,,,,2.32,1.13,2.03*1D
12:12:07.355 -> $GNGSA,A,3,79,78,77,81,87,88,71,72,,,,,2.32,1.13,2.03*19
12:12:07.422 -> $GPGSV,3,1,11,01,29,051,41,03,39,091,34,06,37,225,,11,17,066,27*72
12:12:07.488 -> $GPGSV,3,2,11,17,71,320,52,18,04,052,23,19,54,292,49,22,32,065,32*7B
12:12:07.555 -> $GPGSV,3,3,11,24,17,309,27,28,63,155,44,30,01,189,*4A
12:12:07.621 -> $GLGSV,3,1,10,65,04,134,22,71,20,042,45,72,20,094,28,77,40,200,42*64
12:12:07.688 -> $GLGSV,3,2,10,78,56,285,48,79,17,332,23,81,10,257,34,86,09,061,21*6D
12:12:07.754 -> $GLGSV,3,3,10,87,59,023,49,88,52,283,46*67
12:12:07.787 -> $GNGLL,4531.84239,N,07336.88997,W,161207.00,A,A*67
12:12:08.119 -> $GNRMC,161208.00,A,4531.84240,N,07336.88994,W,0.032,,190719,,,A*7A
12:12:08.186 -> $GNVTG,,T,,M,0.032,N,0.059,K,A*30
12:12:08.219 -> $GNGGA,161208.00,4531.84240,N,07336.88994,W,1,12,0.80,76.1,M,-32.7,M,,*40
12:12:08.285 -> $GNGSA,A,3,01,19,28,11,24,22,03,17,,,,,1.35,0.80,1.09*1B
12:12:08.352 -> $GNGSA,A,3,79,78,77,81,87,88,71,72,,,,,1.35,0.80,1.09*1F
12:12:08.418 -> $GPGSV,3,1,11,01,29,051,37,03,39,091,31,06,37,225,,11,17,066,26*77
12:12:08.485 -> $GPGSV,3,2,11,17,71,320,52,18,04,052,23,19,54,292,49,22,32,065,32*7B
12:12:08.551 -> $GPGSV,3,3,11,24,17,309,27,28,63,155,44,30,01,189,*4A
12:12:08.618 -> $GLGSV,3,1,10,65,04,134,21,71,20,042,39,72,20,094,29,77,40,200,42*6D
12:12:08.684 -> $GLGSV,3,2,10,78,56,285,48,79,17,332,26,81,11,257,32,86,09,061,20*6E
12:12:08.751 -> $GLGSV,3,3,10,87,59,023,50,88,52,283,45*6C
12:12:08.784 -> $GNGLL,4531.84240,N,07336.88994,W,161208.00,A,A*65
12:12:09.116 -> $GNRMC,161209.00,A,4531.84242,N,07336.88988,W,0.035,,190719,,,A*73
12:12:09.182 -> $GNVTG,,T,,M,0.035,N,0.065,K,A*38
12:12:09.216 -> $GNGGA,161209.00,4531.84242,N,07336.88988,W,1,12,0.92,76.2,M,-32.7,M,,*4E
12:12:09.282 -> $GNGSA,A,3,01,19,28,11,24,22,17,,,,,,1.51,0.92,1.20*12
12:12:09.349 -> $GNGSA,A,3,79,78,77,81,87,88,71,72,,,,,1.51,0.92,1.20*15
12:12:09.415 -> $GPGSV,3,1,11,01,29,051,41,03,39,091,,06,37,225,,11,17,066,26*74
12:12:09.482 -> $GPGSV,3,2,11,17,71,320,52,18,04,052,24,19,54,292,49,22,32,065,32*7C
12:12:09.548 -> $GPGSV,3,3,11,24,17,309,27,28,63,155,44,30,01,189,*4A
12:12:09.615 -> $GLGSV,3,1,10,65,04,134,22,71,20,042,45,72,20,094,30,77,40,200,42*6D
12:12:09.681 -> $GLGSV,3,2,10,78,56,285,48,79,17,332,27,81,11,257,32,86,09,061,19*65
12:12:09.747 -> $GLGSV,3,3,10,87,59,023,50,88,52,283,46*6F
12:12:09.781 -> $GNGLL,4531.84242,N,07336.88988,W,161209.00,A,A*6B
12:12:10.113 -> $GNRMC,161210.00,A,4531.84244,N,07336.88982,W,0.007,,190719,,,A*76
12:12:10.179 -> $GNVTG,,T,,M,0.007,N,0.013,K,A*38
12:12:10.212 -> $GNGGA,161210.00,4531.84244,N,07336.88982,W,1,12,0.79,76.3,M,-32.7,M,,*4E
12:12:10.279 -> $GNGSA,A,3,01,19,28,11,03,24,22,17,,,,,1.34,0.79,1.08*1D
12:12:10.345 -> $GNGSA,A,3,79,78,77,81,87,88,71,72,,,,,1.34,0.79,1.08*19
12:12:10.412 -> $GPGSV,3,1,11,01,29,051,40,03,39,091,36,06,37,225,,11,17,066,26*70
12:12:10.478 -> $GPGSV,3,2,11,17,71,320,52,18,04,052,24,19,54,292,49,22,32,065,35*7B
12:12:10.544 -> $GPGSV,3,3,11,24,17,309,27,28,63,155,45,30,01,189,*4B
12:12:10.611 -> $GLGSV,3,1,10,65,04,134,22,71,20,042,45,72,20,094,31,77,40,200,42*6C
12:12:10.677 -> $GLGSV,3,2,10,78,56,285,48,79,17,332,28,81,11,257,30,86,09,061,18*69
12:12:10.744 -> $GLGSV,3,3,10,87,59,023,49,88,52,283,46*67
12:12:10.777 -> $GNGLL,4531.84244,N,07336.88982,W,161210.00,A,A*6F
12:12:11.142 -> $GNRMC,161211.00,A,4531.84246,N,07336.88982,W,0.008,,190719,,,A*7A
12:12:11.209 -> $GNVTG,,T,,M,0.008,N,0.015,K,A*31
12:12:11.242 -> $GNGGA,161211.00,4531.84246,N,07336.88982,W,1,12,0.87,76.3,M,-32.7,M,,*4C
12:12:11.308 -> $GNGSA,A,3,01,19,28,11,03,24,22,17,,,,,1.58,0.87,1.32*1F
12:12:11.375 -> $GNGSA,A,3,79,78,77,81,87,88,71,72,,,,,1.58,0.87,1.32*1B
12:12:11.441 -> $GPGSV,3,1,11,01,29,051,41,03,39,091,35,06,37,225,,11,17,066,26*72
12:12:11.508 -> $GPGSV,3,2,11,17,71,320,52,18,04,052,24,19,54,292,49,22,32,065,35*7B
12:12:11.574 -> $GPGSV,3,3,11,24,17,309,26,28,63,155,45,30,01,189,*4A
12:12:11.640 -> $GLGSV,3,1,10,65,04,134,22,71,20,042,46,72,20,094,32,77,40,200,42*6C
12:12:11.707 -> $GLGSV,3,2,10,78,56,285,48,79,17,332,27,81,11,257,35,86,09,061,18*63
12:12:11.773 -> $GLGSV,3,3,10,87,59,023,50,88,52,283,46*6F
12:12:11.806 -> $GNGLL,4531.84246,N,07336.88982,W,161211.00,A,A*6C
12:12:12.138 -> $GNRMC,161212.00,A,4531.84246,N,07336.88985,W,0.034,,190719,,,A*71
12:12:12.205 -> $GNVTG,,T,,M,0.034,N,0.063,K,A*3F
12:12:12.238 -> $GNGGA,161212.00,4531.84246,N,07336.88985,W,1,12,0.91,76.3,M,-32.7,M,,*4F
12:12:12.304 -> $GNGSA,A,3,01,19,28,11,03,24,22,17,,,,,1.67,0.91,1.40*11
12:12:12.371 -> $GNGSA,A,3,79,78,77,81,87,88,71,72,,,,,1.67,0.91,1.40*15
12:12:12.437 -> $GPGSV,3,1,11,01,29,051,42,03,39,091,35,06,37,225,,11,17,066,26*71
12:12:12.504 -> $GPGSV,3,2,11,17,71,320,52,18,04,052,24,19,54,292,49,22,32,065,33*7D
12:12:12.570 -> $GPGSV,3,3,11,24,17,309,29,28,63,155,44,30,01,189,*44
12:12:12.636 -> $GLGSV,3,1,10,65,04,134,20,71,20,042,44,72,20,094,31,77,40,200,41*6C
12:12:12.703 -> $GLGSV,3,2,10,78,56,285,47,79,17,332,25,81,11,257,34,86,09,061,19*6E
12:12:12.769 -> $GLGSV,3,3,10,87,59,023,49,88,52,283,46*67
12:12:12.803 -> $GNGLL,4531.84246,N,07336.88985,W,161212.00,A,A*68
12:12:13.135 -> $GNRMC,161213.00,A,4531.84246,N,07336.88986,W,0.054,,190719,,,A*75
12:12:13.201 -> $GNVTG,,T,,M,0.054,N,0.101,K,A*3C
12:12:13.235 -> $GNGGA,161213.00,4531.84246,N,07336.88986,W,1,12,0.96,76.2,M,-32.7,M,,*4B
12:12:13.301 -> $GNGSA,A,3,01,19,28,11,03,24,22,17,,,,,1.76,0.96,1.47*11
12:12:13.367 -> $GNGSA,A,3,79,78,77,81,87,88,71,72,,,,,1.76,0.96,1.47*15
12:12:13.434 -> $GPGSV,3,1,11,01,29,051,41,03,39,091,35,06,37,225,,11,17,066,26*72
12:12:13.500 -> $GPGSV,3,2,11,17,71,320,52,18,04,052,24,19,54,292,48,22,32,065,32*7D
12:12:13.567 -> $GPGSV,3,3,11,24,17,309,31,28,63,155,45,30,01,189,*4C
12:12:13.633 -> $GLGSV,3,1,10,65,04,134,19,71,20,042,42,72,20,094,32,77,40,200,41*63
12:12:13.700 -> $GLGSV,3,2,10,78,56,285,48,79,17,332,23,81,11,257,32,86,08,061,18*61
12:12:13.766 -> $GLGSV,3,3,10,87,59,023,51,88,52,283,46*6E
12:12:13.799 -> $GNGLL,4531.84246,N,07336.88986,W,161213.00,A,A*6A
12:12:14.098 -> $GNRMC,161214.00,A,4531.84245,N,07336.88988,W,0.031,,190719,,,A*7C
12:12:14.165 -> $GNVTG,,T,,M,0.031,N,0.057,K,A*3D
12:12:14.198 -> $GNGGA,161214.00,4531.84245,N,07336.88988,W,1,12,0.91,76.1,M,-32.7,M,,*45
12:12:14.264 -> $GNGSA,A,3,01,19,28,11,03,24,22,17,,,,,1.67,0.91,1.40*11
12:12:14.331 -> $GNGSA,A,3,79,78,77,81,87,88,71,72,,,,,1.67,0.91,1.40*15
12:12:14.397 -> $GPGSV,3,1,11,01,29,051,40,03,39,091,33,06,37,225,,11,17,066,27*74
12:12:14.463 -> $GPGSV,3,2,11,17,71,320,52,18,04,052,25,19,54,292,48,22,32,065,32*7C
12:12:14.530 -> $GPGSV,3,3,11,24,17,309,32,28,63,155,45,30,01,189,*4F
12:12:14.596 -> $GLGSV,3,1,10,65,04,134,19,71,20,042,45,72,20,094,31,77,40,200,41*67
12:12:14.663 -> $GLGSV,3,2,10,78,56,285,48,79,17,332,23,81,11,257,30,86,08,061,18*63
12:12:14.729 -> $GLGSV,3,3,10,87,59,023,49,88,52,283,45*64
12:12:14.763 -> $GNGLL,4531.84245,N,07336.88988,W,161214.00,A,A*60
12:12:15.128 -> $GNRMC,161215.00,A,4531.84244,N,07336.88989,W,0.026,,190719,,,A*7B
12:12:15.194 -> $GNVTG,,T,,M,0.026,N,0.049,K,A*34
12:12:15.227 -> $GNGGA,161215.00,4531.84244,N,07336.88989,W,1,12,0.91,76.0,M,-32.7,M,,*45
12:12:15.294 -> $GNGSA,A,3,01,19,28,11,03,24,22,17,,,,,1.67,0.91,1.40*11
12:12:15.360 -> $GNGSA,A,3,79,78,77,81,87,88,71,72,,,,,1.67,0.91,1.40*15
12:12:15.427 -> $GPGSV,3,1,11,01,29,051,42,03,39,091,34,06,37,225,,11,17,066,27*71
12:12:15.493 -> $GPGSV,3,2,11,17,71,320,52,18,04,052,25,19,54,292,49,22,32,065,32*7D
12:12:15.560 -> $GPGSV,3,3,11,24,17,309,31,28,63,155,45,30,01,189,*4C
12:12:15.626 -> $GLGSV,3,1,10,65,04,134,19,71,20,042,45,72,20,094,32,77,40,200,40*65
12:12:15.693 -> $GLGSV,3,2,10,78,56,285,48,79,17,332,24,81,11,257,30,86,08,061,18*64
12:12:15.759 -> $GLGSV,3,3,10,87,59,023,49,88,52,283,46*67
12:12:15.792 -> $GNGLL,4531.84244,N,07336.88989,W,161215.00,A,A*61
12:12:16.124 -> $GNRMC,161216.00,A,4531.84246,N,07336.88990,W,0.019,,190719,,,A*7E
12:12:16.191 -> $GNVTG,,T,,M,0.019,N,0.035,K,A*33
12:12:16.224 -> $GNGGA,161216.00,4531.84246,N,07336.88990,W,1,12,0.82,75.9,M,-32.7,M,,*44
12:12:16.291 -> $GNGSA,A,3,01,19,28,11,03,24,22,17,,,,,1.35,0.82,1.08*18
12:12:16.357 -> $GNGSA,A,3,79,78,77,81,87,88,71,72,,,,,1.35,0.82,1.08*1C
12:12:16.424 -> $GPGSV,3,1,11,01,28,051,42,03,39,091,34,06,37,225,,11,17,066,27*70
12:12:16.490 -> $GPGSV,3,2,11,17,71,320,51,18,04,052,24,19,54,292,48,22,32,065,34*78
12:12:16.556 -> $GPGSV,3,3,11,24,17,309,31,28,63,155,44,30,01,189,*4D
12:12:16.623 -> $GLGSV,3,1,10,65,04,134,19,71,20,042,45,72,20,094,31,77,40,200,39*68
12:12:16.689 -> $GLGSV,3,2,10,78,56,285,48,79,17,332,25,81,11,257,30,86,08,061,19*64
12:12:16.756 -> $GLGSV,3,3,10,87,59,023,50,88,52,283,46*6F
12:12:16.789 -> $GNGLL,4531.84246,N,07336.88990,W,161216.00,A,A*68
12:12:17.121 -> $GNRMC,161217.00,A,4531.84246,N,07336.88992,W,0.024,,190719,,,A*73
12:12:17.188 -> $GNVTG,,T,,M,0.024,N,0.045,K,A*3A
12:12:17.221 -> $GNGGA,161217.00,4531.84246,N,07336.88992,W,1,12,0.87,75.8,M,-32.7,M,,*43
12:12:17.287 -> $GNGSA,A,3,01,19,28,11,03,24,22,17,,,,,1.41,0.87,1.11*16
12:12:17.354 -> $GNGSA,A,3,79,78,77,81,87,88,71,72,,,,,1.41,0.87,1.11*12
12:12:17.420 -> $GPGSV,3,1,11,01,28,051,42,03,39,090,36,06,37,225,,11,17,066,27*73
12:12:17.487 -> $GPGSV,3,2,11,17,71,320,51,18,04,052,25,19,54,292,48,22,32,065,34*79
12:12:17.553 -> $GPGSV,3,3,11,24,17,309,32,28,63,155,45,30,01,189,*4F
12:12:17.620 -> $GLGSV,3,1,10,65,04,134,18,71,20,042,45,72,20,094,31,77,40,200,40*67
12:12:17.686 -> $GLGSV,3,2,10,78,56,285,47,79,17,332,25,81,11,257,29,86,08,061,21*68
12:12:17.752 -> $GLGSV,3,3,10,87,59,023,50,88,52,283,46*6F
12:12:17.786 -> $GNGLL,4531.84246,N,07336.88992,W,161217.00,A,A*6B
12:12:18.118 -> $GNRMC,161218.00,A,4531.84246,N,07336.88993,W,0.013,,190719,,,A*79
12:12:18.184 -> $GNVTG,,T,,M,0.013,N,0.024,K,A*39
12:12:18.217 -> $GNGGA,161218.00,4531.84246,N,07336.88993,W,1,12,0.76,75.8,M,-32.7,M,,*43
12:12:18.284 -> $GNGSA,A,3,01,19,28,11,03,24,22,17,,,,,1.29,0.76,1.05*13
12:12:18.350 -> $GNGSA,A,3,79,78,77,81,87,88,71,72,,,,,1.29,0.76,1.05*17
12:12:18.417 -> $GPGSV,3,1,11,01,28,051,42,03,39,090,36,06,37,225,,11,17,066,28*7C
12:12:18.483 -> $GPGSV,3,2,11,17,71,320,52,18,04,052,24,19,54,292,48,22,32,065,35*7A
12:12:18.550 -> $GPGSV,3,3,11,24,17,309,31,28,63,155,45,30,01,189,*4C
12:12:18.616 -> $GLGSV,3,1,10,65,04,134,16,71,20,042,45,72,20,094,31,77,40,200,39*67
12:12:18.682 -> $GLGSV,3,2,10,78,56,285,48,79,17,332,26,81,11,257,30,86,08,061,21*6C
12:12:18.749 -> $GLGSV,3,3,10,87,59,023,51,88,52,283,45*6D
12:12:18.782 -> $GNGLL,4531.84246,N,07336.88993,W,161218.00,A,A*65
12:12:19.114 -> $GNRMC,161219.00,A,4531.84246,N,07336.88996,W,0.025,,190719,,,A*78
12:12:19.181 -> $GNVTG,,T,,M,0.025,N,0.047,K,A*39
12:12:19.214 -> $GNGGA,161219.00,4531.84246,N,07336.88996,W,1,12,0.82,75.7,M,-32.7,M,,*43
12:12:19.280 -> $GNGSA,A,3,01,19,28,11,03,24,22,17,,,,,1.35,0.82,1.08*18
12:12:19.347 -> $GNGSA,A,3,79,78,77,81,87,88,71,72,,,,,1.35,0.82,1.08*1C
12:12:19.413 -> $GPGSV,3,1,11,01,28,051,42,03,39,090,37,06,37,225,,11,17,066,28*7D
12:12:19.480 -> $GPGSV,3,2,11,17,71,320,52,18,04,052,24,19,54,292,48,22,32,065,36*79
12:12:19.546 -> $GPGSV,3,3,11,24,17,309,31,28,63,155,43,30,01,189,*4A
12:12:19.612 -> $GLGSV,3,1,10,65,04,134,17,71,20,042,44,72,20,094,31,77,40,200,40*69
12:12:19.679 -> $GLGSV,3,2,10,78,56,285,48,79,17,332,27,81,11,257,32,86,08,061,21*6F
12:12:19.745 -> $GLGSV,3,3,10,87,59,023,51,88,52,283,46*6E
12:12:19.778 -> $GNGLL,4531.84246,N,07336.88996,W,161219.00,A,A*61
12:12:20.111 -> $GNRMC,161220.00,A,4531.84245,N,07336.88999,W,0.000,,190719,,,A*79
12:12:20.177 -> $GNVTG,,T,,M,0.000,N,0.000,K,A*3D
12:12:20.210 -> $GNGGA,161220.00,4531.84245,N,07336.88999,W,1,12,0.82,75.7,M,-32.7,M,,*45
12:12:20.277 -> $GNGSA,A,3,01,19,28,11,03,24,22,17,,,,,1.35,0.82,1.08*18
12:12:20.343 -> $GNGSA,A,3,79,78,77,81,87,88,71,72,,,,,1.35,0.82,1.08*1C
12:12:20.410 -> $GPGSV,3,1,11,01,28,051,42,03,39,090,38,06,37,225,,11,17,066,28*72
12:12:20.476 -> $GPGSV,3,2,11,17,71,320,52,18,04,052,25,19,54,292,48,22,32,065,37*79
12:12:20.543 -> $GPGSV,3,3,11,24,17,309,30,28,63,155,44,30,01,189,*4C
12:12:20.609 -> $GLGSV,3,1,10,65,04,134,15,71,20,042,45,72,20,094,30,77,40,200,41*6A
12:12:20.675 -> $GLGSV,3,2,10,78,56,285,48,79,17,332,24,81,11,257,33,86,08,061,22*6E
12:12:20.742 -> $GLGSV,3,3,10,87,59,023,50,88,52,283,45*6C
12:12:20.775 -> $GNGLL,4531.84245,N,07336.88999,W,161220.00,A,A*67
12:12:21.141 -> $GNRMC,161221.00,A,4531.84243,N,07336.89002,W,0.007,,190719,,,A*73
12:12:21.207 -> $GNVTG,,T,,M,0.007,N,0.012,K,A*39
12:12:21.240 -> $GNGGA,161221.00,4531.84243,N,07336.89002,W,1,12,0.82,75.7,M,-32.7,M,,*48
12:12:21.307 -> $GNGSA,A,3,01,19,28,11,03,24,22,17,,,,,1.35,0.82,1.08*18
12:12:21.373 -> $GNGSA,A,3,79,78,77,81,87,88,71,72,,,,,1.35,0.82,1.08*1C
12:12:21.440 -> $GPGSV,3,1,11,01,28,051,42,03,39,090,38,06,37,225,,11,17,066,27*7D
12:12:21.506 -> $GPGSV,3,2,11,17,71,320,52,18,04,052,24,19,54,292,47,22,32,065,37*77
12:12:21.573 -> $GPGSV,3,3,11,24,17,309,30,28,63,155,44,30,01,189,*4C
12:12:21.639 -> $GLGSV,3,1,10,65,04,134,13,71,20,042,45,72,20,094,30,77,40,200,41*6C
12:12:21.706 -> $GLGSV,3,2,10,78,56,285,48,79,17,332,24,81,11,257,32,86,08,061,23*6E
12:12:21.772 -> $GLGSV,3,3,10,87,59,023,51,88,52,283,45*6D
12:12:21.805 -> $GNGLL,4531.84243,N,07336.89002,W,161221.00,A,A*6A
12:12:22.104 -> $GNRMC,161222.00,A,4531.84240,N,07336.89002,W,0.026,,190719,,,A*70
12:12:22.171 -> $GNVTG,,T,,M,0.026,N,0.049,K,A*34
12:12:22.204 -> $GNGGA,161222.00,4531.84240,N,07336.89002,W,1,12,0.87,75.6,M,-32.7,M,,*4C
12:12:22.270 -> $GNGSA,A,3,01,19,28,11,03,24,22,17,,,,,1.41,0.87,1.11*16
12:12:22.337 -> $GNGSA,A,3,79,78,77,81,87,88,71,72,,,,,1.41,0.87,1.11*12
12:12:22.403 -> $GPGSV,3,1,11,01,28,051,43,03,39,090,37,06,37,225,,11,17,066,27*73
12:12:22.470 -> $GPGSV,3,2,11,17,71,320,52,18,04,052,25,19,54,292,47,22,32,065,37*76
12:12:22.536 -> $GPGSV,3,3,11,24,17,309,32,28,63,155,44,30,01,189,*4E
12:12:22.602 -> $GLGSV,3,1,10,65,04,134,,71,20,042,45,72,20,094,33,77,40,200,41*6D
12:12:22.669 -> $GLGSV,3,2,10,78,56,285,48,79,17,332,22,81,11,257,31,86,08,061,24*6C
12:12:22.735 -> $GLGSV,3,3,10,87,59,023,51,88,52,283,45*6D
12:12:22.769 -> $GNGLL,4531.84240,N,07336.89002,W,161222.00,A,A*6A
12:12:23.134 -> $GNRMC,161223.00,A,4531.84237,N,07336.89003,W,0.014,,190719,,,A*71
12:12:23.200 -> $GNVTG,,T,,M,0.014,N,0.026,K,A*3C
12:12:23.233 -> $GNGGA,161223.00,4531.84237,N,07336.89003,W,1,12,0.82,75.6,M,-32.7,M,,*49
12:12:23.300 -> $GNGSA,A,3,01,19,28,11,03,24,22,17,,,,,1.35,0.82,1.08*18
12:12:23.366 -> $GNGSA,A,3,79,78,77,81,87,88,71,72,,,,,1.35,0.82,1.08*1C
12:12:23.433 -> $GPGSV,3,1,11,01,28,051,42,03,39,090,36,06,37,225,,11,17,066,27*73
12:12:23.499 -> $GPGSV,3,2,11,17,71,320,52,18,04,052,24,19,54,292,47,22,32,065,37*77
12:12:23.566 -> $GPGSV,3,3,11,24,17,309,33,28,63,155,44,30,01,189,*4F
12:12:23.632 -> $GLGSV,3,1,10,65,04,134,,71,20,042,44,72,20,094,34,77,40,200,41*6B
12:12:23.699 -> $GLGSV,3,2,10,78,56,285,48,79,17,332,29,81,11,257,31,86,08,061,23*60
12:12:23.765 -> $GLGSV,3,3,10,87,59,023,51,88,52,283,45*6D
