12:06:38.753 -> $GNRMC,160634.00,A,4531.82868,N,07336.88224,W,0.032,,190719,,,A*0,059,26*6C
12:06:38.783 -> $GLGSV,3,3,10,87,61,018,50,88,51,279,51*6C
12:06:38.794 -> $GNGLL,4531.82864,N,07336.88245,W,160638.00,A,A*6E
12:06:39.126 -> $GNRMC,160639.00,A,4531.82873,N,07336.88243,W,0.028,,190719,,,A*7B
12:06:39.193 -> $GNVTG,,T,,M,0.028,N,0.052,K,A*30
12:06:39.226 -> $GNGGA,160639.00,4531.82873,N,07336.88243,W,1,12,0.96,61.8,M,-32.7,M,,*42
12:06:39.292 -> $GNGSA,A,3,24,19,28,01,11,22,03,17,,,,,1.74,0.96,1.45*11
12:06:39.359 -> $GNGSA,A,3,79,78,77,87,88,71,,,,,,,1.74,0.96,1.45*19
12:06:39.425 -> $GPGSV,3,1,11,01,31,051,47,03,38,094,48,06,34,223,,11,19,066,35*7A
12:06:39.491 -> $GPGSV,3,2,11,17,69,314,48,18,06,051,31,19,52,289,49,22,33,068,42*7B
12:06:39.558 -> $GPGSV,3,3,11,24,16,311,37,28,66,154,44,30,03,190,*4D
12:06:39.624 -> $GLGSV,3,1,10,65,02,136,20,70,01,002,,71,20,046,30,72,18,097,25*65
12:06:39.691 -> $GLGSV,3,2,10,77,43,200,30,78,55,291,44,79,15,333,33,86,10,059,24*6A
12:06:39.757 -> $GLGSV,3,3,10,87,61,018,46,88,51,279,47*6C
12:06:39.790 -> $GNGLL,4531.82873,N,07336.88243,W,160639.00,A,A*6F
12:06:40.123 -> $GNRMC,160640.00,A,4531.82880,N,07336.88240,W,0.033,,190719,,,A*70
12:06:40.189 -> $GNVTG,,T,,M,0.033,N,0.061,K,A*3A
12:06:40.222 -> $GNGGA,160640.00,4531.82880,N,07336.88240,W,1,12,0.96,62.0,M,-32.7,M,,*48
12:06:40.289 -> $GNGSA,A,3,24,19,28,01,11,22,03,17,,,,,1.74,0.96,1.45*11
12:06:40.355 -> $GNGSA,A,3,79,78,77,87,88,71,,,,,,,1.74,0.96,1.45*19
12:06:40.422 -> $GPGSV,3,1,11,01,31,051,46,03,38,094,48,06,34,223,,11,19,066,31*7F
12:06:40.488 -> $GPGSV,3,2,11,17,69,314,49,18,06,051,30,19,52,289,50,22,33,068,43*72
12:06:40.555 -> $GPGSV,3,3,11,24,16,311,37,28,66,154,45,30,03,190,*4C
12:06:40.621 -> $GLGSV,3,1,10,65,02,136,19,70,01,002,,71,20,045,31,72,18,097,22*6A
12:06:40.687 -> $GLGSV,3,2,10,77,43,200,29,78,55,291,45,79,15,333,38,86,10,059,23*6F
12:06:40.754 -> $GLGSV,3,3,10,87,61,018,49,88,51,279,49*6D
12:06:40.787 -> $GNGLL,4531.82880,N,07336.88240,W,160640.00,A,A*6E
12:06:41.152 -> $GNRMC,160641.00,A,4531.82886,N,07336.88238,W,0.008,,190719,,,A*70
12:06:41.219 -> $GNVTG,,T,,M,0.008,N,0.015,K,A*31
12:06:41.252 -> $GNGGA,160641.00,4531.82886,N,07336.88238,W,1,12,0.96,62.1,M,-32.7,M,,*41
12:06:41.319 -> $GNGSA,A,3,24,19,28,01,11,22,03,17,,,,,1.74,0.96,1.45*11
12:06:41.385 -> $GNGSA,A,3,79,78,77,87,88,71,,,,,,,1.74,0.96,1.45*19
12:06:41.451 -> $GPGSV,3,1,11,01,31,051,45,03,38,094,47,06,34,223,,11,19,066,27*74
12:06:41.518 -> $GPGSV,3,2,11,17,69,314,49,18,06,051,31,19,52,289,50,22,33,068,44*74
12:06:41.584 -> $GPGSV,3,3,11,24,16,311,40,28,66,154,45,30,03,190,*4C
12:06:41.651 -> $GLGSV,3,1,10,65,02,136,16,70,01,002,,71,20,045,32,72,18,096,20*65
12:06:41.717 -> $GLGSV,3,2,10,77,43,200,29,78,55,291,45,79,15,333,40,86,10,059,23*60
12:06:41.784 -> $GLGSV,3,3,10,87,61,018,49,88,51,279,49*6D
12:06:41.817 -> $GNGLL,4531.82886,N,07336.88238,W,160641.00,A,A*66
12:06:42.149 -> $GNRMC,160642.00,A,4531.82889,N,07336.88239,W,0.017,,190719,,,A*73
12:06:42.216 -> $GNVTG,,T,,M,0.017,N,0.031,K,A*39
12:06:42.249 -> $GNGGA,160642.00,4531.82889,N,07336.88239,W,1,12,0.96,62.0,M,-32.7,M,,*4D
12:06:42.315 -> $GNGSA,A,3,24,19,28,01,11,22,03,17,,,,,1.74,0.96,1.45*11
12:06:42.382 -> $GNGSA,A,3,79,78,77,87,88,71,,,,,,,1.74,0.96,1.45*19
12:06:42.448 -> $GPGSV,3,1,11,01,31,051,45,03,38,094,46,06,34,223,,11,19,066,33*70
12:06:42.514 -> $GPGSV,3,2,11,17,69,314,50,18,06,051,30,19,52,289,50,22,33,068,44*7D
12:06:42.581 -> $GPGSV,3,3,11,24,16,311,38,28,66,154,45,30,03,190,*43
12:06:42.647 -> $GLGSV,3,1,10,65,02,136,16,70,01,002,,71,20,045,35,72,18,096,20*62
12:06:42.714 -> $GLGSV,3,2,10,77,43,200,28,78,55,291,45,79,15,333,39,86,10,059,22*6E
12:06:42.780 -> $GLGSV,3,3,10,87,61,018,49,88,51,279,49*6D
12:06:42.813 -> $GNGLL,4531.82889,N,07336.88239,W,160642.00,A,A*6B
12:06:43.113 -> $GNRMC,160643.00,A,4531.82892,N,07336.88243,W,0.089,,190719,,,A*72
12:06:43.179 -> $GNVTG,,T,,M,0.089,N,0.165,K,A*3E
12:06:43.212 -> $GNGGA,160643.00,4531.82892,N,07336.88243,W,1,12,0.96,62.0,M,-32.7,M,,*4B
12:06:43.312 -> $GNGSA,A,3,24,19,28,01,11,22,03,17,,,,,1.74,0.96,1.45*11
12:06:43.345 -> $GNGSA,A,3,79,78,77,87,88,71,,,,,,,1.74,0.96,1.45*19
12:06:43.445 -> $GPGSV,3,1,11,01,31,051,47,03,38,094,46,06,34,223,,11,19,066,34*75
12:06:43.511 -> $GPGSV,3,2,11,17,69,314,50,18,06,051,29,19,52,289,50,22,33,068,44*75
12:06:43.577 -> $GPGSV,3,3,11,24,16,311,38,28,66,154,44,30,03,190,*42
12:06:43.644 -> $GLGSV,3,1,10,65,02,136,16,70,01,002,,71,20,045,34,72,18,096,23*60
12:06:43.710 -> $GLGSV,3,2,10,77,43,200,27,78,55,291,45,79,15,333,38,86,10,059,22*60
12:06:43.777 -> $GLGSV,3,3,10,87,61,018,49,88,51,279,49*6D
12:06:43.810 -> $GNGLL,4531.82892,N,07336.88243,W,160643.00,A,A*6D
12:06:44.109 -> $GNRMC,160644.00,A,4531.82900,N,07336.88246,W,0.014,,190719,,,A*7E
12:06:44.176 -> $GNVTG,,T,,M,0.014,N,0.027,K,A*3D
12:06:44.209 -> $GNGGA,160644.00,4531.82900,N,07336.88246,W,1,12,0.96,62.0,M,-32.7,M,,*43
12:06:44.275 -> $GNGSA,A,3,24,19,28,01,11,22,03,17,,,,,1.74,0.96,1.45*11
12:06:44.342 -> $GNGSA,A,3,79,78,77,87,88,71,,,,,,,1.74,0.96,1.45*19
12:06:44.408 -> $GPGSV,3,1,11,01,31,051,47,03,38,094,46,06,34,223,,11,19,066,33*72
12:06:44.475 -> $GPGSV,3,2,11,17,69,314,49,18,06,051,29,19,52,289,50,22,33,068,45*7C
12:06:44.541 -> $GPGSV,3,3,11,24,16,311,38,28,66,154,43,30,03,190,*45
12:06:44.607 -> $GLGSV,3,1,10,65,02,136,17,70,01,002,,71,20,045,35,72,18,096,25*66
12:06:44.674 -> $GLGSV,3,2,10,77,43,200,27,78,55,291,45,79,15,333,36,86,10,059,23*6F
12:06:44.740 -> $GLGSV,3,3,10,87,61,018,49,88,51,279,49*6D
12:06:44.774 -> $GNGLL,4531.82900,N,07336.88246,W,160644.00,A,A*65
12:06:45.139 -> $GNRMC,160645.00,A,4531.82908,N,07336.88254,W,0.033,,190719,,,A*71
12:06:45.206 -> $GNVTG,,T,,M,0.033,N,0.062,K,A*39
12:06:45.239 -> $GNGGA,160645.00,4531.82908,N,07336.88254,W,1,12,0.96,62.0,M,-32.7,M,,*49
12:06:45.305 -> $GNGSA,A,3,24,19,28,01,11,22,03,17,,,,,1.74,0.96,1.45*11
12:06:45.371 -> $GNGSA,A,3,79,78,77,87,88,71,,,,,,,1.74,0.96,1.45*19
12:06:45.438 -> $GPGSV,3,1,11,01,31,051,46,03,38,094,48,06,34,223,,11,19,066,33*7D
12:06:45.504 -> $GPGSV,3,2,11,17,69,314,49,18,06,051,30,19,52,289,50,22,33,068,45*74
12:06:45.571 -> $GPGSV,3,3,11,24,16,311,40,28,66,154,43,30,03,190,*4A
12:06:45.637 -> $GLGSV,3,1,10,65,02,136,17,70,01,002,,71,20,045,36,72,18,096,27*67
12:06:45.704 -> $GLGSV,3,2,10,77,43,200,28,78,55,291,45,79,15,333,38,86,10,059,24*69
12:06:45.770 -> $GLGSV,3,3,10,87,61,018,49,88,51,279,49*6D
12:06:45.803 -> $GNGLL,4531.82908,N,07336.88254,W,160645.00,A,A*6F
12:06:46.135 -> $GNRMC,160646.00,A,4531.82913,N,07336.88264,W,0.023,,190719,,,A*7A
12:06:46.202 -> $GNVTG,,T,,M,0.023,N,0.043,K,A*3B
12:06:46.235 -> $GNGGA,160646.00,4531.82913,N,07336.88264,W,1,12,0.96,61.8,M,-32.7,M,,*48
12:06:46.302 -> $GNGSA,A,3,24,19,28,01,11,22,03,17,,,,,1.74,0.96,1.45*11
12:06:46.368 -> $GNGSA,A,3,79,78,77,87,88,71,,,,,,,1.74,0.96,1.45*19
12:06:46.434 -> $GPGSV,3,1,11,01,31,051,46,03,38,094,48,06,34,223,,11,19,066,32*7C
12:06:46.500 -> $GPGSV,3,2,11,17,69,314,49,18,06,051,30,19,52,289,49,22,33,068,44*7D
12:06:46.566 -> $GPGSV,3,3,11,24,16,311,40,28,66,154,42,30,03,190,*4B
12:06:46.633 -> $GLGSV,3,1,10,65,02,136,16,70,01,002,,71,20,045,35,72,18,096,32*61
12:06:46.699 -> $GLGSV,3,2,10,77,43,200,30,78,55,291,45,79,15,333,39,86,10,059,23*66
12:06:46.765 -> $GLGSV,3,3,10,87,61,018,49,88,51,279,49*6D
12:06:46.798 -> $GNGLL,4531.82913,N,07336.88264,W,160646.00,A,A*65
12:06:47.130 -> $GNRMC,160647.00,A,4531.82918,N,07336.88271,W,0.034,,190719,,,A*72
12:06:47.197 -> $GNVTG,,T,,M,0.034,N,0.063,K,A*3F
12:06:47.230 -> $GNGGA,160647.00,4531.82918,N,07336.88271,W,1,12,0.96,61.7,M,-32.7,M,,*49
12:06:47.296 -> $GNGSA,A,3,24,19,28,01,11,22,03,17,,,,,1.74,0.96,1.45*11
12:06:47.363 -> $GNGSA,A,3,79,78,77,87,88,71,,,,,,,1.74,0.96,1.45*19
12:06:47.429 -> $GPGSV,3,1,11,01,31,051,46,03,38,094,48,06,34,223,,11,19,066,32*7C
12:06:47.495 -> $GPGSV,3,2,11,17,69,314,49,18,06,051,31,19,52,289,49,22,33,068,44*7C
12:06:47.562 -> $GPGSV,3,3,11,24,16,311,37,28,66,154,43,30,03,190,*4A
12:06:47.628 -> $GLGSV,3,1,10,65,02,136,14,70,01,002,,71,20,045,35,72,18,096,31*60
12:06:47.695 -> $GLGSV,3,2,10,77,43,200,30,78,55,290,44,79,15,333,39,86,10,059,24*61
12:06:47.761 -> $GLGSV,3,3,10,87,61,018,50,88,51,279,49*65
12:06:47.795 -> $GNGLL,4531.82918,N,07336.88271,W,160647.00,A,A*6B
12:06:48.127 -> $GNRMC,160648.00,A,4531.82923,N,07336.88280,W,0.013,,190719,,,A*7E
12:06:48.193 -> $GNVTG,,T,,M,0.013,N,0.023,K,A*3E
12:06:48.226 -> $GNGGA,160648.00,4531.82923,N,07336.88280,W,1,12,0.96,61.5,M,-32.7,M,,*42
12:06:48.293 -> $GNGSA,A,3,24,19,28,01,11,22,03,17,,,,,1.74,0.96,1.45*11
12:06:48.359 -> $GNGSA,A,3,79,78,77,87,88,71,,,,,,,1.74,0.96,1.45*19
12:06:48.426 -> $GPGSV,3,1,11,01,31,051,47,03,38,094,48,06,34,223,,11,19,066,33*7C
12:06:48.492 -> $GPGSV,3,2,11,17,69,314,49,18,06,051,30,19,52,289,49,22,33,068,44*7D
12:06:48.559 -> $GPGSV,3,3,11,24,16,311,38,28,66,154,43,30,03,190,*45
12:06:48.625 -> $GLGSV,3,1,10,65,02,136,12,70,01,002,,71,20,045,36,72,18,096,31*65
12:06:48.692 -> $GLGSV,3,2,10,77,43,200,29,78,55,290,44,79,15,333,41,86,10,059,24*66
12:06:48.758 -> $GLGSV,3,3,10,87,61,018,50,88,51,279,49*65
12:06:48.791 -> $GNGLL,4531.82923,N,07336.88280,W,160648.00,A,A*62
12:06:49.124 -> $GNRMC,160649.00,A,4531.82929,N,07336.88285,W,0.046,,190719,,,A*70
12:06:49.190 -> $GNVTG,,T,,M,0.046,N,0.085,K,A*32
12:06:49.223 -> $GNGGA,160649.00,4531.82929,N,07336.88285,W,1,12,0.96,61.6,M,-32.7,M,,*4F
12:06:49.290 -> $GNGSA,A,3,24,19,28,01,11,22,03,17,,,,,1.74,0.96,1.45*11
12:06:49.356 -> $GNGSA,A,3,79,78,77,87,88,71,,,,,,,1.74,0.96,1.45*19
12:06:49.423 -> $GPGSV,3,1,11,01,31,051,47,03,38,094,47,06,34,223,,11,19,066,37*77
12:06:49.489 -> $GPGSV,3,2,11,17,69,314,49,18,06,051,30,19,52,289,47,22,33,068,43*74
12:06:49.556 -> $GPGSV,3,3,11,24,16,311,40,28,66,154,43,30,03,190,*4A
12:06:49.622 -> $GLGSV,3,1,11,65,02,136,11,70,01,002,,71,20,045,35,72,18,096,29*6D
12:06:49.688 -> $GLGSV,3,2,11,77,43,200,28,78,55,290,45,79,15,333,40,81,09,255,*61
12:06:49.755 -> $GLGSV,3,3,11,86,10,059,25,87,61,018,49,88,51,279,50*50
12:06:49.822 -> $GNGLL,4531.82929,N,07336.88285,W,160649.00,A,A*6C
12:06:50.121 -> $GNRMC,160650.00,A,4531.82933,N,07336.88290,W,0.060,,190719,,,A*73
12:06:50.187 -> $GNVTG,,T,,M,0.060,N,0.112,K,A*39
12:06:50.220 -> $GNGGA,160650.00,4531.82933,N,07336.88290,W,1,12,0.96,61.6,M,-32.7,M,,*48
12:06:50.287 -> $GNGSA,A,3,24,19,28,01,11,22,03,17,,,,,1.73,0.96,1.45*16
12:06:50.353 -> $GNGSA,A,3,79,78,77,87,88,71,,,,,,,1.73,0.96,1.45*1E
12:06:50.419 -> $GPGSV,3,1,11,01,31,051,46,03,38,094,48,06,34,223,,11,19,066,32*7C
12:06:50.486 -> $GPGSV,3,2,11,17,69,314,49,18,06,051,31,19,52,289,48,22,33,068,45*7C
12:06:50.552 -> $GPGSV,3,3,11,24,16,311,41,28,66,154,44,30,03,190,*4C
12:06:50.619 -> $GLGSV,3,1,11,65,02,136,10,70,01,002,,71,20,045,36,72,18,096,27*61
12:06:50.685 -> $GLGSV,3,2,11,77,43,200,27,78,55,290,43,79,15,333,39,81,09,255,28*6C
12:06:50.752 -> $GLGSV,3,3,11,86,10,059,25,87,61,018,50,88,51,279,50*58
12:06:50.818 -> $GNGLL,4531.82933,N,07336.88290,W,160650.00,A,A*6B
12:06:51.150 -> $GNRMC,160651.00,A,4531.82936,N,07336.88293,W,0.007,,190719,,,A*75
12:06:51.217 -> $GNVTG,,T,,M,0.007,N,0.013,K,A*38
12:06:51.250 -> $GNGGA,160651.00,4531.82936,N,07336.88293,W,1,12,0.96,61.7,M,-32.7,M,,*4E
12:06:51.317 -> $GNGSA,A,3,24,19,28,01,11,22,03,17,,,,,1.73,0.96,1.45*16
12:06:51.383 -> $GNGSA,A,3,79,78,77,87,88,71,,,,,,,1.73,0.96,1.45*1E
12:06:51.449 -> $GPGSV,3,1,11,01,31,051,45,03,38,094,46,06,34,223,,11,19,066,33*70
12:06:51.516 -> $GPGSV,3,2,11,17,69,314,50,18,06,051,36,19,52,289,47,22,33,068,46*7F
12:06:51.582 -> $GPGSV,3,3,11,24,16,311,41,28,66,154,44,30,03,190,*4C
12:06:51.649 -> $GLGSV,3,1,11,65,02,136,,70,01,002,,71,20,045,37,72,18,096,27*61
12:06:51.715 -> $GLGSV,3,2,11,77,43,200,29,78,55,290,46,79,15,333,42,81,09,255,26*65
12:06:51.782 -> $GLGSV,3,3,11,86,10,059,27,87,61,018,51,88,51,279,51*5A
12:06:51.848 -> $GNGLL,4531.82936,N,07336.88293,W,160651.00,A,A*6C
12:06:52.114 -> $GNRMC,160652.00,A,4531.82939,N,07336.88295,W,0.006,,190719,,,A*7E
12:06:52.180 -> $GNVTG,,T,,M,0.006,N,0.011,K,A*3B
12:06:52.213 -> $GNGGA,160652.00,4531.82939,N,07336.88295,W,1,12,0.96,61.8,M,-32.7,M,,*4B
12:06:52.280 -> $GNGSA,A,3,24,19,28,01,11,22,03,17,,,,,1.73,0.96,1.45*16
12:06:52.346 -> $GNGSA,A,3,79,78,77,87,88,71,,,,,,,1.73,0.96,1.45*1E
12:06:52.413 -> $GPGSV,3,1,11,01,31,051,46,03,38,094,48,06,34,223,,11,19,066,34*7A
12:06:52.479 -> $GPGSV,3,2,11,17,69,314,51,18,06,051,37,19,52,289,47,22,33,068,45*7C
12:06:52.546 -> $GPGSV,3,3,11,24,16,311,41,28,66,154,45,30,03,190,*4D
12:06:52.612 -> $GLGSV,3,1,11,65,02,136,,70,01,002,,71,20,045,37,72,18,096,27*61
12:06:52.679 -> $GLGSV,3,2,11,77,43,200,29,78,55,290,48,79,15,333,39,81,09,255,25*64
12:06:52.745 -> $GLGSV,3,3,11,86,10,059,29,87,61,019,54,88,51,279,51*50
12:06:52.845 -> $GNGLL,4531.82939,N,07336.88295,W,160652.00,A,A*66
12:06:53.111 -> $GNRMC,160653.00,A,4531.82942,N,07336.88296,W,0.025,,190719,,,A*71
12:06:53.177 -> $GNVTG,,T,,M,0.025,N,0.047,K,A*39
12:06:53.210 -> $GNGGA,160653.00,4531.82942,N,07336.88296,W,1,12,0.96,61.9,M,-32.7,M,,*44
12:06:53.277 -> $GNGSA,A,3,24,19,28,01,11,22,03,17,,,,,1.73,0.96,1.45*16
12:06:53.343 -> $GNGSA,A,3,79,78,77,87,88,71,,,,,,,1.73,0.96,1.45*1E
12:06:53.410 -> $GPGSV,3,1,11,01,31,051,47,03,38,094,47,06,34,223,,11,19,066,36*76
12:06:53.476 -> $GPGSV,3,2,11,17,69,314,51,18,06,051,34,19,52,289,47,22,33,068,44*7E
12:06:53.542 -> $GPGSV,3,3,11,24,16,311,41,28,66,154,46,30,03,190,*4E
12:06:53.609 -> $GLGSV,3,1,11,65,02,136,,70,01,002,,71,20,045,37,72,18,096,24*62
12:06:53.675 -> $GLGSV,3,2,11,77,43,200,30,78,55,290,48,79,15,333,39,81,09,255,23*6A
12:06:53.742 -> $GLGSV,3,3,11,86,10,059,29,87,61,019,53,88,51,279,50*56
12:06:53.808 -> $GNGLL,4531.82942,N,07336.88296,W,160653.00,A,A*68
12:06:54.140 -> $GNRMC,160654.00,A,4531.82946,N,07336.88294,W,0.036,,190719,,,A*72
12:06:54.207 -> $GNVTG,,T,,M,0.036,N,0.066,K,A*38
12:06:54.240 -> $GNGGA,160654.00,4531.82946,N,07336.88294,W,1,12,0.96,62.1,M,-32.7,M,,*4E
12:06:54.307 -> $GNGSA,A,3,24,19,28,01,11,22,03,17,,,,,1.73,0.96,1.45*16
12:06:54.373 -> $GNGSA,A,3,79,78,77,87,88,71,,,,,,,1.73,0.96,1.45*1E
12:06:54.440 -> $GPGSV,3,1,11,01,30,051,46,03,38,094,48,06,34,223,,11,19,066,36*79
12:06:54.506 -> $GPGSV,3,2,11,17,69,314,50,18,06,051,32,19,52,289,48,22,33,068,42*70
12:06:54.573 -> $GPGSV,3,3,11,24,16,311,43,28,66,154,46,30,03,190,*4C
12:06:54.639 -> $GLGSV,3,1,11,65,02,136,,70,01,002,,71,20,045,34,72,18,096,25*60
12:06:54.705 -> $GLGSV,3,2,11,77,43,200,28,78,55,290,47,79,15,333,35,81,09,255,23*60
12:06:54.772 -> $GLGSV,3,3,11,86,10,059,29,87,61,019,53,88,51,279,51*57
12:06:54.838 -> $GNGLL,4531.82946,N,07336.88294,W,160654.00,A,A*69
12:06:55.137 -> $GNRMC,160655.00,A,4531.82951,N,07336.88291,W,0.004,,190719,,,A*71
12:06:55.204 -> $GNVTG,,T,,M,0.004,N,0.008,K,A*31
12:06:55.237 -> $GNGGA,160655.00,4531.82951,N,07336.88291,W,1,12,0.96,62.3,M,-32.7,M,,*4E
12:06:55.304 -> $GNGSA,A,3,24,19,28,01,11,22,03,17,,,,,1.73,0.96,1.45*16
12:06:55.370 -> $GNGSA,A,3,79,78,77,87,88,71,,,,,,,1.73,0.96,1.45*1E
12:06:55.436 -> $GPGSV,3,1,11,01,30,051,45,03,38,094,48,06,34,223,,11,19,066,35*79
12:06:55.503 -> $GPGSV,3,2,11,17,69,314,49,18,06,051,34,19,52,289,48,22,33,068,43*7F
12:06:55.569 -> $GPGSV,3,3,11,24,16,311,42,28,66,154,47,30,03,190,*4C
12:06:55.636 -> $GLGSV,3,1,11,65,02,136,,70,01,002,,71,20,045,33,72,18,096,25*67
12:06:55.702 -> $GLGSV,3,2,11,77,43,200,27,78,55,290,47,79,15,333,35,81,09,255,25*69
12:06:55.769 -> $GLGSV,3,3,11,86,10,059,30,87,61,019,52,88,51,279,51*5E
12:06:55.835 -> $GNGLL,4531.82951,N,07336.88291,W,160655.00,A,A*6B
12:06:56.134 -> $GNRMC,160656.00,A,4531.82955,N,07336.88290,W,0.021,,190719,,,A*70
12:06:56.201 -> $GNVTG,,T,,M,0.021,N,0.039,K,A*34
12:06:56.234 -> $GNGGA,160656.00,4531.82955,N,07336.88290,W,1,12,0.96,62.4,M,-32.7,M,,*4F
12:06:56.300 -> $GNGSA,A,3,24,19,28,01,11,22,03,17,,,,,1.73,0.96,1.45*16
12:06:56.366 -> $GNGSA,A,3,79,78,77,87,88,71,,,,,,,1.73,0.96,1.45*1E
12:06:56.433 -> $GPGSV,3,1,11,01,30,051,46,03,38,094,49,06,34,223,,11,19,066,34*7A
12:06:56.499 -> $GPGSV,3,2,11,17,69,314,50,18,06,051,34,19,52,289,48,22,33,068,44*70
12:06:56.566 -> $GPGSV,3,3,11,24,16,311,43,28,66,154,47,30,03,190,*4D
12:06:56.632 -> $GLGSV,3,1,11,65,02,136,,70,01,002,,71,20,045,32,72,18,096,26*65
12:06:56.699 -> $GLGSV,3,2,11,77,43,200,27,78,55,290,47,79,15,333,35,81,09,255,24*68
12:06:56.765 -> $GLGSV,3,3,11,86,10,059,29,87,61,019,52,88,51,279,50*57
12:06:56.832 -> $GNGLL,4531.82955,N,07336.88290,W,160656.00,A,A*6D
12:06:57.131 -> $GNRMC,160657.00,A,4531.82961,N,07336.88289,W,0.019,,190719,,,A*75
12:06:57.197 -> $GNVTG,,T,,M,0.019,N,0.035,K,A*33
12:06:57.231 -> $GNGGA,160657.00,4531.82961,N,07336.88289,W,1,12,0.96,62.7,M,-32.7,M,,*42
12:06:57.297 -> $GNGSA,A,3,24,19,28,01,11,22,03,17,,,,,1.73,0.96,1.45*16
12:06:57.364 -> $GNGSA,A,3,79,78,77,87,88,71,,,,,,,1.73,0.96,1.45*1E
12:06:57.430 -> $GPGSV,3,1,11,01,30,051,48,03,38,094,44,06,35,224,,11,19,066,34*7F
12:06:57.497 -> $GPGSV,3,2,11,17,69,314,48,18,06,051,34,19,52,289,49,22,33,068,46*7A
12:06:57.563 -> $GPGSV,3,3,11,24,16,311,42,28,66,154,47,30,03,190,*4C
12:06:57.629 -> $GLGSV,3,1,11,65,02,136,,70,01,002,,71,20,045,36,72,18,096,25*62
12:06:57.696 -> $GLGSV,3,2,11,77,43,200,29,78,55,290,47,79,15,333,32,81,09,255,25*60
12:06:57.762 -> $GLGSV,3,3,11,86,10,059,29,87,61,019,52,88,51,279,50*57
12:06:57.829 -> $GNGLL,4531.82961,N,07336.88289,W,160657.00,A,A*63
12:06:58.128 -> $GNRMC,160658.00,A,4531.82968,N,07336.88288,W,0.035,,190719,,,A*7C
12:06:58.194 -> $GNVTG,,T,,M,0.035,N,0.065,K,A*38
12:06:58.227 -> $GNGGA,160658.00,4531.82968,N,07336.88288,W,1,12,0.96,63.0,M,-32.7,M,,*43
12:06:58.294 -> $GNGSA,A,3,24,19,28,01,11,22,03,17,,,,,1.73,0.96,1.45*16
12:06:58.360 -> $GNGSA,A,3,79,78,77,87,88,71,,,,,,,1.73,0.96,1.45*1E
12:06:58.427 -> $GPGSV,3,1,11,01,30,051,46,03,38,094,46,06,35,224,,11,19,066,34*73
12:06:58.493 -> $GPGSV,3,2,11,17,69,314,49,18,06,051,34,19,52,289,49,22,33,068,47*7A
12:06:58.559 -> $GPGSV,3,3,11,24,16,311,42,28,66,154,47,30,03,190,*4C
12:06:58.626 -> $GLGSV,3,1,11,65,02,136,,70,01,002,,71,20,045,35,72,18,096,22*66
12:06:58.692 -> $GLGSV,3,2,11,77,43,200,31,78,55,290,47,79,15,333,31,81,09,255,24*6B
12:06:58.759 -> $GLGSV,3,3,11,86,10,059,29,87,61,019,53,88,51,279,50*56
12:06:58.825 -> $GNGLL,4531.82968,N,07336.88288,W,160658.00,A,A*64
12:06:59.124 -> $GNRMC,160659.00,A,4531.82975,N,07336.88291,W,0.008,,190719,,,A*77
12:06:59.191 -> $GNVTG,,T,,M,0.008,N,0.015,K,A*31
12:06:59.224 -> $GNGGA,160659.00,4531.82975,N,07336.88291,W,1,12,0.96,63.1,M,-32.7,M,,*47
12:06:59.291 -> $GNGSA,A,3,24,19,28,01,11,22,03,17,,,,,1.73,0.96,1.45*16
12:06:59.357 -> $GNGSA,A,3,79,78,77,87,88,71,,,,,,,1.73,0.96,1.45*1E
12:06:59.423 -> $GPGSV,3,1,11,01,30,051,47,03,38,094,48,06,35,224,,11,19,066,34*7C
12:06:59.490 -> $GPGSV,3,2,11,17,69,314,49,18,06,051,35,19,52,289,50,22,33,068,46*72
12:06:59.556 -> $GPGSV,3,3,11,24,16,311,42,28,66,154,48,30,03,190,*43
12:06:59.623 -> $GLGSV,3,1,11,65,02,136,,70,01,002,,71,20,045,33,72,18,096,22*60
12:06:59.689 -> $GLGSV,3,2,11,77,43,200,32,78,55,290,47,79,15,333,37,81,09,255,24*6E
12:06:59.756 -> $GLGSV,3,3,11,86,10,059,30,87,61,019,52,88,51,279,50*5F
12:06:59.822 -> $GNGLL,4531.82975,N,07336.88291,W,160659.00,A,A*61
12:07:00.155 -> $GNRMC,160700.00,A,4531.82982,N,07336.88291,W,0.037,,190719,,,A*7E
12:07:00.221 -> $GNVTG,,T,,M,0.037,N,0.069,K,A*36
12:07:00.254 -> $GNGGA,160700.00,4531.82982,N,07336.88291,W,1,12,0.96,63.4,M,-32.7,M,,*47
12:07:00.320 -> $GNGSA,A,3,24,19,28,01,11,22,03,17,,,,,1.73,0.96,1.45*16
12:07:00.387 -> $GNGSA,A,3,79,78,77,87,88,71,,,,,,,1.73,0.96,1.45*1E
12:07:00.453 -> $GPGSV,3,1,11,01,30,051,47,03,38,094,47,06,35,224,,11,19,066,35*72
12:07:00.520 -> $GPGSV,3,2,11,17,69,314,49,18,06,051,35,19,52,289,50,22,33,068,47*73
12:07:00.586 -> $GPGSV,3,3,11,24,16,311,43,28,66,154,47,30,03,190,*4D
12:07:00.653 -> $GLGSV,3,1,11,65,02,136,,70,01,002,,71,20,045,33,72,18,096,22*60
12:07:00.719 -> $GLGSV,3,2,11,77,43,200,32,78,55,290,47,79,15,333,37,81,09,255,22*68
12:07:00.786 -> $GLGSV,3,3,11,86,10,059,30,87,61,019,53,88,51,279,50*5E
12:07:00.852 -> $GNGLL,4531.82982,N,07336.88291,W,160700.00,A,A*64
12:07:01.151 -> $GNRMC,160701.00,A,4531.82989,N,07336.88288,W,0.008,,190719,,,A*70
12:07:01.217 -> $GNVTG,,T,,M,0.008,N,0.015,K,A*31
12:07:01.250 -> $GNGGA,160701.00,4531.82989,N,07336.88288,W,1,12,0.96,63.8,M,-32.7,M,,*49
12:07:01.317 -> $GNGSA,A,3,24,19,28,01,11,22,03,17,,,,,1.73,0.96,1.45*16
12:07:01.383 -> $GNGSA,A,3,79,78,77,87,88,71,,,,,,,1.73,0.96,1.45*1E
12:07:01.450 -> $GPGSV,3,1,11,01,30,051,45,03,38,094,45,06,35,224,,11,19,066,35*72
12:07:01.516 -> $GPGSV,3,2,11,17,69,314,48,18,06,051,34,19,52,289,50,22,33,068,46*72
12:07:01.583 -> $GPGSV,3,3,11,24,16,311,42,28,66,154,46,30,03,190,*4D
12:07:01.649 -> $GLGSV,3,1,11,65,02,136,,70,01,002,,71,20,045,33,72,18,096,26*64
12:07:01.716 -> $GLGSV,3,2,11,77,43,200,33,78,55,290,48,79,15,333,43,81,09,255,21*66
12:07:01.782 -> $GLGSV,3,3,11,86,10,059,29,87,61,019,54,88,51,279,50*51
12:07:01.848 -> $GNGLL,4531.82989,N,07336.88288,W,160701.00,A,A*66
12:07:02.114 -> $GNRMC,160702.00,A,4531.82995,N,07336.88288,W,0.026,,190719,,,A*72
12:07:02.181 -> $GNVTG,,T,,M,0.026,N,0.047,K,A*3A
12:07:02.214 -> $GNGGA,160702.00,4531.82995,N,07336.88288,W,1,12,0.96,64.0,M,-32.7,M,,*48
12:07:02.280 -> $GNGSA,A,3,24,19,28,01,11,22,03,17,,,,,1.73,0.96,1.44*17
12:07:02.347 -> $GNGSA,A,3,79,78,77,87,88,71,,,,,,,1.73,0.96,1.44*1F
12:07:02.413 -> $GPGSV,3,1,11,01,30,051,45,03,38,094,46,06,35,224,,11,19,066,34*70
12:07:02.480 -> $GPGSV,3,2,11,17,69,314,48,18,06,051,33,19,52,289,50,22,33,068,46*75
12:07:02.546 -> $GPGSV,3,3,11,24,16,311,42,28,66,154,47,30,03,190,*4C
12:07:02.613 -> $GLGSV,3,1,11,65,02,136,,70,01,002,,71,20,045,34,72,18,096,26*63
12:07:02.679 -> $GLGSV,3,2,11,77,43,200,33,78,55,290,48,79,15,333,42,81,09,255,20*66
12:07:02.746 -> $GLGSV,3,3,11,86,10,059,28,87,61,019,53,88,51,279,50*57
12:07:02.812 -> $GNGLL,4531.82995,N,07336.88288,W,160702.00,A,A*68
12:07:03.144 -> $GNRMC,160703.00,A,4531.83000,N,07336.88288,W,0.047,,190719,,,A*70
12:07:03.211 -> $GNVTG,,T,,M,0.047,N,0.086,K,A*30
12:07:03.244 -> $GNGGA,160703.00,4531.83000,N,07336.88288,W,1,12,0.96,64.2,M,-32.7,M,,*4F
12:07:03.310 -> $GNGSA,A,3,24,19,28,01,11,22,03,17,,,,,1.73,0.96,1.44*17
12:07:03.377 -> $GNGSA,A,3,79,78,77,87,88,71,,,,,,,1.73,0.96,1.44*1F
12:07:03.443 -> $GPGSV,3,1,11,01,30,051,45,03,38,094,47,06,35,224,,11,19,066,35*70
12:07:03.510 -> $GPGSV,3,2,11,17,69,314,49,18,06,051,33,19,52,289,50,22,33,068,44*76
12:07:03.576 -> $GPGSV,3,3,11,24,16,311,41,28,66,154,44,30,03,190,*4C
12:07:03.642 -> $GLGSV,3,1,11,65,02,136,,70,01,002,,71,20,045,35,72,18,096,26*62
12:07:03.709 -> $GLGSV,3,2,11,77,43,200,33,78,55,290,48,79,15,333,42,81,09,255,19*6C
12:07:03.775 -> $GLGSV,3,3,11,86,10,059,27,87,61,019,52,88,51,279,50*59
12:07:03.842 -> $GNGLL,4531.83000,N,07336.88288,W,160703.00,A,A*6D
12:07:04.141 -> $GNRMC,160704.00,A,4531.83002,N,07336.88287,W,0.011,,190719,,,A*79
12:07:04.207 -> $GNVTG,,T,,M,0.011,N,0.020,K,A*3F
12:07:04.241 -> $GNGGA,160704.00,4531.83002,N,07336.88287,W,1,12,0.96,64.4,M,-32.7,M,,*43
12:07:04.307 -> $GNGSA,A,3,24,19,28,01,11,22,03,17,,,,,1.73,0.96,1.44*17
12:07:04.374 -> $GNGSA,A,3,79,78,77,87,88,71,,,,,,,1.73,0.96,1.44*1F
12:07:04.440 -> $GPGSV,3,1,11,01,30,051,45,03,38,094,47,06,35,224,,11,19,066,34*71
12:07:04.507 -> $GPGSV,3,2,11,17,69,314,51,18,06,051,37,19,52,289,49,22,33,068,46*71
12:07:04.573 -> $GPGSV,3,3,11,24,16,311,41,28,66,154,44,30,03,190,24*4A
12:07:04.640 -> $GLGSV,3,1,11,65,02,136,,70,01,002,,71,20,045,35,72,18,096,29*6D
12:07:04.706 -> $GLGSV,3,2,11,77,43,200,29,78,55,290,49,79,15,333,45,81,09,255,18*60
12:07:04.773 -> $GLGSV,3,3,11,86,10,059,26,87,61,019,52,88,51,279,50*58
12:07:04.839 -> $GNGLL,4531.83002,N,07336.88287,W,160704.00,A,A*67
12:07:05.138 -> $GNRMC,160705.00,A,4531.83002,N,07336.88287,W,0.019,,190719,,,A*70
12:07:05.205 -> $GNVTG,,T,,M,0.019,N,0.035,K,A*33
12:07:05.238 -> $GNGGA,160705.00,4531.83002,N,07336.88287,W,1,12,0.96,64.5,M,-32.7,M,,*43
12:07:05.304 -> $GNGSA,A,3,24,19,28,01,11,22,03,17,,,,,1.73,0.96,1.44*17
12:07:05.371 -> $GNGSA,A,3,79,78,77,87,88,71,,,,,,,1.73,0.96,1.44*1F
12:07:05.437 -> $GPGSV,3,1,11,01,30,051,47,03,38,094,48,06,35,224,,11,19,066,34*7C
12:07:05.504 -> $GPGSV,3,2,11,17,69,314,50,18,06,051,37,19,52,289,50,22,33,068,45*7B
12:07:05.570 -> $GPGSV,3,3,11,24,16,311,43,28,66,154,43,30,03,190,20*4B
12:07:05.637 -> $GLGSV,3,1,11,65,02,136,21,70,01,002,,71,20,045,35,72,18,096,32*64
12:07:05.703 -> $GLGSV,3,2,11,77,43,200,33,78,55,290,48,79,15,333,44,81,09,255,18*6B
12:07:05.770 -> $GLGSV,3,3,11,86,10,059,26,87,61,019,52,88,51,279,50*58
12:07:05.836 -> $GNGLL,4531.83002,N,07336.88287,W,160705.00,A,A*66
12:07:06.135 -> $GNRMC,160706.00,A,4531.83003,N,07336.88285,W,0.008,,190719,,,A*70
12:07:06.202 -> $GNVTG,,T,,M,0.008,N,0.015,K,A*31
12:07:06.235 -> $GNGGA,160706.00,4531.83003,N,07336.88285,W,1,12,0.96,64.6,M,-32.7,M,,*40
12:07:06.301 -> $GNGSA,A,3,24,19,28,01,11,22,03,17,,,,,1.73,0.96,1.44*17
12:07:06.368 -> $GNGSA,A,3,79,78,77,87,88,71,,,,,,,1.73,0.96,1.44*1F
12:07:06.434 -> $GPGSV,3,1,11,01,30,051,47,03,38,094,46,06,35,224,,11,19,066,33*75
12:07:06.501 -> $GPGSV,3,2,11,17,69,314,50,18,06,051,37,19,52,289,48,22,33,068,47*70
12:07:06.567 -> $GPGSV,3,3,11,24,16,311,43,28,66,154,43,30,03,190,18*40
12:07:06.667 -> $GLGSV,3,1,11,65,02,136,21,70,01,002,,71,20,045,36,72,18,096,33*66
12:07:06.733 -> $GLGSV,3,2,11,77,43,200,32,78,55,290,48,79,15,333,45,81,09,255,23*63
12:07:06.800 -> $GLGSV,3,3,11,86,10,059,25,87,61,019,52,88,51,279,50*5B
12:07:06.866 -> $GNGLL,4531.83003,N,07336.88285,W,160706.00,A,A*66
12:07:07.132 -> $GNRMC,160707.00,A,4531.83004,N,07336.88285,W,0.023,,190719,,,A*7F
12:07:07.198 -> $GNVTG,,T,,M,0.023,N,0.043,K,A*3B
12:07:07.232 -> $GNGGA,160707.00,4531.83004,N,07336.88285,W,1,12,0.96,64.7,M,-32.7,M,,*47
12:07:07.298 -> $GNGSA,A,3,24,19,28,01,11,22,03,17,,,,,1.73,0.96,1.44*17
12:07:07.364 -> $GNGSA,A,3,79,78,77,87,88,71,,,,,,,1.73,0.96,1.44*1F
12:07:07.431 -> $GPGSV,3,1,11,01,30,051,45,03,38,094,48,06,35,224,,11,19,066,34*7E
12:07:07.497 -> $GPGSV,3,2,11,17,69,314,49,18,06,051,37,19,52,289,48,22,33,068,46*79
12:07:07.564 -> $GPGSV,3,3,11,24,16,311,43,28,66,154,43,30,03,190,16*4E
12:07:07.630 -> $GLGSV,3,1,11,65,02,136,21,70,01,002,,71,20,045,36,72,18,096,32*67
12:07:07.697 -> $GLGSV,3,2,11,77,43,200,31,78,55,290,47,79,15,333,46,81,09,255,24*6B
12:07:07.763 -> $GLGSV,3,3,11,86,10,059,25,87,61,019,52,88,51,279,49*53
12:07:07.830 -> $GNGLL,4531.83004,N,07336.88285,W,160707.00,A,A*60
12:07:08.129 -> $GNRMC,160708.00,A,4531.83005,N,07336.88283,W,0.046,,190719,,,A*74
12:07:08.195 -> $GNVTG,,T,,M,0.046,N,0.086,K,A*31
12:07:08.229 -> $GNGGA,160708.00,4531.83005,N,07336.88283,W,1,12,0.96,64.9,M,-32.7,M,,*41
12:07:08.295 -> $GNGSA,A,3,24,19,28,01,11,22,03,17,,,,,1.73,0.96,1.44*17
12:07:08.361 -> $GNGSA,A,3,79,78,77,87,88,71,,,,,,,1.73,0.96,1.44*1F
12:07:08.428 -> $GPGSV,3,1,11,01,30,051,46,03,38,094,48,06,35,224,,11,19,066,35*7C
12:07:08.494 -> $GPGSV,3,2,11,17,70,315,49,18,06,051,38,19,52,289,48,22,33,068,45*7C
12:07:08.561 -> $GPGSV,3,3,11,24,16,311,43,28,66,154,43,30,03,190,17*4F
12:07:08.627 -> $GLGSV,3,1,11,65,02,136,21,70,01,002,,71,20,045,36,72,18,096,31*64
12:07:08.694 -> $GLGSV,3,2,11,77,43,200,29,78,55,290,47,79,15,333,44,81,09,255,25*61
12:07:08.760 -> $GLGSV,3,3,11,86,10,059,26,87,61,019,51,88,51,279,50*5B
12:07:08.827 -> $GNGLL,4531.83005,N,07336.88283,W,160708.00,A,A*68
12:07:09.126 -> $GNRMC,160709.00,A,4531.83006,N,07336.88282,W,0.005,,190719,,,A*70
12:07:09.192 -> $GNVTG,,T,,M,0.005,N,0.008,K,A*30
12:07:09.225 -> $GNGGA,160709.00,4531.83006,N,07336.88282,W,1,12,0.96,65.1,M,-32.7,M,,*4B
12:07:09.292 -> $GNGSA,A,3,24,19,28,01,11,22,03,17,,,,,1.73,0.96,1.44*17
12:07:09.358 -> $GNGSA,A,3,79,78,77,87,88,71,,,,,,,1.73,0.96,1.44*1F
12:07:09.425 -> $GPGSV,3,1,11,01,30,051,45,03,38,094,48,06,35,224,,11,19,066,35*7F
12:07:09.491 -> $GPGSV,3,2,11,17,70,315,50,18,06,051,38,19,52,289,48,22,33,068,45*74
12:07:09.557 -> $GPGSV,3,3,11,24,16,311,42,28,66,154,44,30,03,190,18*46
12:07:09.624 -> $GLGSV,3,1,11,65,02,136,22,70,01,002,,71,20,045,32,72,18,096,30*62
12:07:09.690 -> $GLGSV,3,2,11,77,43,200,28,78,55,290,47,79,15,333,44,81,09,255,26*63
12:07:09.757 -> $GLGSV,3,3,11,86,10,059,27,87,61,019,51,88,51,279,50*5A
12:07:09.823 -> $GNGLL,4531.83006,N,07336.88282,W,160709.00,A,A*6B
12:07:10.122 -> $GNRMC,160710.00,A,4531.83007,N,07336.88280,W,0.066,,190719,,,A*7E
12:07:10.189 -> $GNVTG,,T,,M,0.066,N,0.122,K,A*3C
12:07:10.222 -> $GNGGA,160710.00,4531.83007,N,07336.88280,W,1,12,0.96,65.2,M,-32.7,M,,*43
12:07:10.288 -> $GNGSA,A,3,24,19,28,01,11,22,03,17,,,,,1.73,0.96,1.44*17
12:07:10.355 -> $GNGSA,A,3,79,78,77,87,88,71,,,,,,,1.73,0.96,1.44*1F
12:07:10.421 -> $GPGSV,3,1,11,01,30,051,46,03,38,094,48,06,35,224,,11,19,066,33*7A
12:07:10.488 -> $GPGSV,3,2,11,17,70,315,50,18,06,051,37,19,53,290,48,22,33,068,44*73
12:07:10.554 -> $GPGSV,3,3,11,24,16,311,42,28,66,154,44,30,03,190,19*47
12:07:10.621 -> $GLGSV,3,1,11,65,02,136,22,70,01,002,,71,20,045,33,72,18,096,30*63
12:07:10.687 -> $GLGSV,3,2,11,77,43,200,27,78,55,290,47,79,15,333,44,81,09,255,27*6D
12:07:10.754 -> $GLGSV,3,3,11,86,10,059,27,87,61,019,52,88,51,279,50*59
12:07:10.820 -> $GNGLL,4531.83007,N,07336.88280,W,160710.00,A,A*60
12:07:11.152 -> $GNRMC,160711.00,A,4531.83008,N,07336.88280,W,0.024,,190719,,,A*76
12:07:11.219 -> $GNVTG,,T,,M,0.024,N,0.045,K,A*3A
12:07:11.252 -> $GNGGA,160711.00,4531.83008,N,07336.88280,W,1,12,0.96,65.4,M,-32.7,M,,*4B
12:07:11.319 -> $GNGSA,A,3,24,19,28,01,11,22,03,17,,,,,1.73,0.96,1.44*17
12:07:11.385 -> $GNGSA,A,3,79,78,77,87,88,71,,,,,,,1.73,0.96,1.44*1F
12:07:11.451 -> $GPGSV,3,1,11,01,30,051,46,03,38,094,48,06,35,224,,11,19,066,36*7F
12:07:11.518 -> $GPGSV,3,2,11,17,70,315,49,18,06,051,34,19,53,290,48,22,33,068,49*75
12:07:11.584 -> $GPGSV,3,3,11,24,16,311,43,28,66,154,46,30,03,190,16*4B
12:07:11.651 -> $GLGSV,3,1,11,65,02,136,22,70,01,002,,71,20,045,33,72,18,096,29*6B
12:07:11.717 -> $GLGSV,3,2,11,77,43,200,27,78,55,290,47,79,15,333,40,81,09,255,26*68
12:07:11.784 -> $GLGSV,3,3,11,86,10,059,28,87,61,019,50,88,51,279,50*54
12:07:11.850 -> $GNGLL,4531.83008,N,07336.88280,W,160711.00,A,A*6E
12:07:12.116 -> $GNRMC,160712.00,A,4531.83011,N,07336.88278,W,0.031,,190719,,,A*7E
12:07:12.182 -> $GNVTG,,T,,M,0.031,N,0.057,K,A*3D
12:07:12.216 -> $GNGGA,160712.00,4531.83011,N,07336.88278,W,1,12,0.95,65.6,M,-32.7,M,,*46
12:07:12.282 -> $GNGSA,A,3,24,19,28,01,11,22,03,17,,,,,1.73,0.95,1.44*14
12:07:12.349 -> $GNGSA,A,3,79,78,77,87,88,71,,,,,,,1.73,0.95,1.44*1C
12:07:12.448 -> $GPGSV,3,1,11,01,30,051,48,03,38,094,48,06,35,224,,11,19,066,35*72
12:07:12.481 -> $GPGSV,3,2,11,17,70,315,49,18,06,051,35,19,53,290,48,22,33,068,47*7A
12:07:12.581 -> $GPGSV,3,3,11,24,16,311,43,28,66,154,47,30,03,190,15*49
12:07:12.648 -> $GLGSV,3,1,11,65,02,136,22,70,01,002,,71,20,045,33,72,18,096,28*6A
12:07:12.714 -> $GLGSV,3,2,11,77,43,200,27,78,55,290,46,79,15,333,42,81,09,255,27*6A
12:07:12.780 -> $GLGSV,3,3,11,86,10,059,30,87,61,019,52,88,51,279,49*57
12:07:12.847 -> $GNGLL,4531.83011,N,07336.88278,W,160712.00,A,A*62
12:07:13.146 -> $GNRMC,160713.00,A,4531.83016,N,07336.88276,W,0.037,,190719,,,A*70
12:07:13.212 -> $GNVTG,,T,,M,0.037,N,0.069,K,A*36
12:07:13.245 -> $GNGGA,160713.00,4531.83016,N,07336.88276,W,1,12,0.95,65.8,M,-32.7,M,,*40
12:07:13.312 -> $GNGSA,A,3,24,19,28,01,11,22,03,17,,,,,1.73,0.95,1.44*14
12:07:13.378 -> $GNGSA,A,3,79,78,77,87,88,71,,,,,,,1.73,0.95,1.44*1C
12:07:13.444 -> $GPGSV,3,1,11,01,30,051,46,03,38,094,48,06,35,224,,11,19,066,35*7C
12:07:13.510 -> $GPGSV,3,2,11,17,70,315,49,18,06,051,27,19,53,290,49,22,33,067,46*76
12:07:13.577 -> $GPGSV,3,3,11,24,16,311,42,28,66,154,46,30,03,190,15*49
12:07:13.643 -> $GLGSV,3,1,11,65,02,136,23,70,01,002,,71,20,045,32,72,18,096,29*6B
12:07:13.709 -> $GLGSV,3,2,11,77,43,200,27,78,55,290,46,79,15,333,42,81,09,255,28*65
12:07:13.776 -> $GLGSV,3,3,11,86,10,059,30,87,61,019,52,88,51,279,50*5F
12:07:13.842 -> $GNGLL,4531.83016,N,07336.88276,W,160713.00,A,A*6A
12:07:14.141 -> $GNRMC,160714.00,A,4531.83022,N,07336.88274,W,0.037,,190719,,,A*72
12:07:14.208 -> $GNVTG,,T,,M,0.037,N,0.069,K,A*36
12:07:14.241 -> $GNGGA,160714.00,4531.83022,N,07336.88274,W,1,12,0.95,66.1,M,-32.7,M,,*48
12:07:14.307 -> $GNGSA,A,3,24,19,28,01,11,22,03,17,,,,,1.73,0.95,1.44*14
12:07:14.374 -> $GNGSA,A,3,79,78,77,87,88,71,,,,,,,1.73,0.95,1.44*1C
12:07:14.440 -> $GPGSV,3,1,11,01,30,051,47,03,38,094,48,06,35,224,,11,19,066,36*7E
12:07:14.507 -> $GPGSV,3,2,11,17,70,315,49,18,06,051,32,19,53,290,49,22,33,067,46*72
12:07:14.573 -> $GPGSV,3,3,11,24,16,311,42,28,66,154,46,30,03,190,17*4B
12:07:14.640 -> $GLGSV,3,1,11,65,02,136,23,70,01,002,,71,20,045,33,72,18,096,28*6B
12:07:14.706 -> $GLGSV,3,2,11,77,43,200,28,78,55,290,46,79,15,333,41,81,09,255,28*69
12:07:14.772 -> $GLGSV,3,3,11,86,10,059,30,87,61,019,52,88,51,279,49*57
12:07:14.839 -> $GNGLL,4531.83022,N,07336.88274,W,160714.00,A,A*68
12:07:15.138 -> $GNRMC,160715.00,A,4531.83028,N,07336.88273,W,0.015,,190719,,,A*7E
12:07:15.204 -> $GNVTG,,T,,M,0.015,N,0.027,K,A*3C
12:07:15.238 -> $GNGGA,160715.00,4531.83028,N,07336.88273,W,1,12,0.95,66.3,M,-32.7,M,,*46
12:07:15.304 -> $GNGSA,A,3,24,19,28,01,11,22,03,17,,,,,1.73,0.95,1.44*14
12:07:15.371 -> $GNGSA,A,3,79,78,77,87,88,71,,,,,,,1.73,0.95,1.44*1C
12:07:15.437 -> $GPGSV,3,1,11,01,30,051,47,03,38,094,49,06,35,224,,11,19,066,35*7C
12:07:15.503 -> $GPGSV,3,2,11,17,70,315,49,18,06,051,36,19,53,290,48,22,33,067,46*77
12:07:15.570 -> $GPGSV,3,3,11,24,16,311,42,28,66,154,46,30,03,190,18*44
12:07:15.636 -> $GLGSV,3,1,11,65,02,136,24,70,01,002,,71,20,045,27,72,18,096,32*62
12:07:15.703 -> $GLGSV,3,2,11,77,43,200,27,78,55,290,46,79,15,333,42,81,09,255,29*64
12:07:15.769 -> $GLGSV,3,3,11,86,10,059,30,87,61,019,52,88,51,279,49*57
12:07:15.836 -> $GNGLL,4531.83028,N,07336.88273,W,160715.00,A,A*64
12:07:16.135 -> $GNRMC,160716.00,A,4531.83032,N,07336.88273,W,0.024,,190719,,,A*74
12:07:16.201 -> $GNVTG,,T,,M,0.024,N,0.045,K,A*3A
12:07:16.234 -> $GNGGA,160716.00,4531.83032,N,07336.88273,W,1,12,0.95,66.5,M,-32.7,M,,*48
12:07:16.301 -> $GNGSA,A,3,24,19,28,01,11,22,03,17,,,,,1.73,0.95,1.44*14
12:07:16.367 -> $GNGSA,A,3,79,78,77,87,88,71,,,,,,,1.73,0.95,1.44*1C
12:07:16.434 -> $GPGSV,3,1,11,01,30,051,47,03,38,094,49,06,35,224,,11,19,066,35*7C
12:07:16.500 -> $GPGSV,3,2,11,17,70,315,49,18,06,051,36,19,53,290,49,22,33,067,47*77
12:07:16.567 -> $GPGSV,3,3,11,24,16,311,41,28,66,154,47,30,03,190,19*47
12:07:16.633 -> $GLGSV,3,1,11,65,02,136,24,70,01,002,,71,20,045,27,72,18,096,30*60
12:07:16.699 -> $GLGSV,3,2,11,77,43,200,27,78,55,290,46,79,15,333,43,81,09,255,29*65
12:07:16.766 -> $GLGSV,3,3,11,86,10,059,28,87,61,019,52,88,51,279,49*5E
12:07:16.832 -> $GNGLL,4531.83032,N,07336.88273,W,160716.00,A,A*6C
12:07:17.131 -> $GNRMC,160717.00,A,4531.83035,N,07336.88273,W,0.008,,190719,,,A*7C
12:07:17.198 -> $GNVTG,,T,,M,0.008,N,0.014,K,A*30
12:07:17.231 -> $GNGGA,160717.00,4531.83035,N,07336.88273,W,1,12,0.95,66.7,M,-32.7,M,,*4C
12:07:17.298 -> $GNGSA,A,3,24,19,28,01,11,22,03,17,,,,,1.73,0.95,1.44*14
12:07:17.364 -> $GNGSA,A,3,79,78,77,87,88,71,,,,,,,1.73,0.95,1.44*1C
12:07:17.430 -> $GPGSV,3,1,11,01,30,051,47,03,38,094,50,06,35,224,,11,19,066,35*74
12:07:17.497 -> $GPGSV,3,2,11,17,70,315,49,18,06,051,36,19,53,290,49,22,33,067,47*77
12:07:17.563 -> $GPGSV,3,3,11,24,16,311,41,28,65,154,47,30,03,190,18*45
12:07:17.630 -> $GLGSV,3,1,11,65,02,136,24,70,01,002,,71,20,045,32,72,18,096,30*64
12:07:17.696 -> $GLGSV,3,2,11,77,43,200,27,78,55,290,46,79,15,333,42,81,09,255,28*65
12:07:17.763 -> $GLGSV,3,3,11,86,10,059,26,87,61,019,52,88,51,279,49*50
12:07:17.829 -> $GNGLL,4531.83035,N,07336.88273,W,160717.00,A,A*6A
12:07:18.161 -> $GNRMC,160718.00,A,4531.83040,N,07336.88273,W,0.025,,190719,,,A*7E
12:07:18.228 -> $GNVTG,,T,,M,0.025,N,0.046,K,A*38
12:07:18.261 -> $GNGGA,160718.00,4531.83040,N,07336.88273,W,1,12,0.95,66.9,M,-32.7,M,,*4F
12:07:18.328 -> $GNGSA,A,3,24,19,28,01,11,22,03,17,,,,,1.73,0.95,1.44*14
12:07:18.394 -> $GNGSA,A,3,79,78,77,87,88,71,,,,,,,1.73,0.95,1.44*1C
12:07:18.460 -> $GPGSV,3,1,11,01,30,051,47,03,38,094,50,06,35,224,,11,19,066,35*74
12:07:18.527 -> $GPGSV,3,2,11,17,70,315,49,18,06,051,36,19,53,290,48,22,33,067,46*77
12:07:18.593 -> $GPGSV,3,3,11,24,16,311,42,28,65,154,46,30,03,190,17*48
12:07:18.660 -> $GLGSV,3,1,11,65,02,136,24,70,01,002,,71,20,045,31,72,18,096,22*64
12:07:18.726 -> $GLGSV,3,2,11,77,43,200,27,78,55,290,46,79,15,333,44,81,09,255,29*62
12:07:18.793 -> $GLGSV,3,3,11,86,10,059,25,87,61,019,52,88,51,279,49*53
12:07:18.859 -> $GNGLL,4531.83040,N,07336.88273,W,160718.00,A,A*67
12:07:19.125 -> $GNRMC,160719.00,A,4531.83046,N,07336.88272,W,0.016,,190719,,,A*78
12:07:19.191 -> $GNVTG,,T,,M,0.016,N,0.029,K,A*31
12:07:19.224 -> $GNGGA,160719.00,4531.83046,N,07336.88272,W,1,12,0.95,67.2,M,-32.7,M,,*43
12:07:19.291 -> $GNGSA,A,3,24,19,28,01,11,22,03,17,,,,,1.73,0.95,1.44*14
12:07:19.357 -> $GNGSA,A,3,79,78,77,87,88,71,,,,,,,1.73,0.95,1.44*1C
12:07:19.424 -> $GPGSV,3,1,11,01,30,051,48,03,38,094,50,06,35,224,,11,19,066,36*78
12:07:19.490 -> $GPGSV,3,2,11,17,70,315,49,18,06,051,37,19,53,290,48,22,33,067,46*76
12:07:19.557 -> $GPGSV,3,3,11,24,16,311,42,28,65,154,46,30,02,190,13*4D
12:07:19.623 -> $GLGSV,3,1,11,65,02,136,24,70,01,002,,71,20,045,32,72,18,096,29*6C
12:07:19.690 -> $GLGSV,3,2,11,77,43,200,28,78,55,290,46,79,15,333,43,81,09,255,30*62
12:07:19.756 -> $GLGSV,3,3,11,86,10,059,24,87,61,019,52,88,51,279,49*52
12:07:19.822 -> $GNGLL,4531.83046,N,07336.88272,W,160719.00,A,A*61
12:07:20.122 -> $GNRMC,160720.00,A,4531.83052,N,07336.88271,W,0.011,,190719,,,A*73
12:07:20.188 -> $GNVTG,,T,,M,0.011,N,0.021,K,A*3E
12:07:20.221 -> $GNGGA,160720.00,4531.83052,N,07336.88271,W,1,12,0.95,67.4,M,-32.7,M,,*49
12:07:20.288 -> $GNGSA,A,3,24,19,28,01,11,22,03,17,,,,,1.73,0.95,1.44*14
12:07:20.354 -> $GNGSA,A,3,79,78,77,87,88,71,,,,,,,1.73,0.95,1.44*1C
12:07:20.420 -> $GPGSV,3,1,11,01,30,051,47,03,38,094,50,06,35,224,,11,19,066,36*77
12:07:20.487 -> $GPGSV,3,2,11,17,70,315,49,18,06,051,37,19,53,290,49,22,33,067,47*76
12:07:20.554 -> $GPGSV,3,3,11,24,16,311,41,28,65,154,46,30,02,190,*4C
12:07:20.620 -> $GLGSV,3,1,11,65,02,136,23,70,01,002,,71,20,045,32,72,18,096,29*6B
12:07:20.686 -> $GLGSV,3,2,11,77,43,200,29,78,55,290,46,79,15,333,43,81,09,255,28*6A
12:07:20.752 -> $GLGSV,3,3,11,86,10,059,25,87,61,019,52,88,51,279,49*53
12:07:20.819 -> $GNGLL,4531.83052,N,07336.88271,W,160720.00,A,A*6D
12:07:21.151 -> $GNRMC,160721.00,A,4531.83056,N,07336.88270,W,0.032,,190719,,,A*76
12:07:21.217 -> $GNVTG,,T,,M,0.032,N,0.059,K,A*30
12:07:21.251 -> $GNGGA,160721.00,4531.83056,N,07336.88270,W,1,12,0.95,67.6,M,-32.7,M,,*4F
12:07:21.317 -> $GNGSA,A,3,24,19,28,01,11,22,03,17,,,,,1.73,0.95,1.44*14
12:07:21.384 -> $GNGSA,A,3,79,78,77,87,88,71,,,,,,,1.73,0.95,1.44*1C
12:07:21.450 -> $GPGSV,3,1,11,01,30,051,48,03,38,094,49,06,35,224,,11,19,066,36*70
12:07:21.516 -> $GPGSV,3,2,11,17,70,315,49,18,06,051,37,19,53,290,48,22,33,067,47*77
12:07:21.583 -> $GPGSV,3,3,11,24,16,311,42,28,65,154,45,30,02,190,*4C
12:07:21.649 -> $GLGSV,3,1,11,65,02,136,22,70,01,002,,71,20,045,32,72,18,096,29*6A
12:07:21.715 -> $GLGSV,3,2,11,77,43,200,28,78,55,290,47,79,15,333,43,81,09,255,28*6A
12:07:21.782 -> $GLGSV,3,3,11,86,10,059,24,87,61,019,51,88,51,279,49*51
12:07:21.848 -> $GNGLL,4531.83056,N,07336.88270,W,160721.00,A,A*69
12:07:22.114 -> $GNRMC,160722.00,A,4531.83060,N,07336.88268,W,0.060,,190719,,,A*7E
12:07:22.181 -> $GNVTG,,T,,M,0.060,N,0.111,K,A*3A
12:07:22.214 -> $GNGGA,160722.00,4531.83060,N,07336.88268,W,1,12,0.95,67.9,M,-32.7,M,,*4F
12:07:22.280 -> $GNGSA,A,3,24,19,28,01,11,22,03,17,,,,,1.73,0.95,1.44*14
12:07:22.347 -> $GNGSA,A,3,79,78,77,87,88,71,,,,,,,1.73,0.95,1.44*1C
12:07:22.413 -> $GPGSV,3,1,11,01,30,051,48,03,38,094,50,06,35,224,,11,19,066,35*7B
12:07:22.480 -> $GPGSV,3,2,11,17,70,315,49,18,06,051,37,19,53,290,48,22,33,067,47*77
12:07:22.546 -> $GPGSV,3,3,11,24,16,311,42,28,65,154,45,30,02,190,*4C
12:07:22.613 -> $GLGSV,3,1,11,65,02,136,22,70,01,002,,71,20,045,31,72,18,096,29*69
12:07:22.679 -> $GLGSV,3,2,11,77,43,200,28,78,55,290,46,79,15,333,43,81,09,255,29*6A
12:07:22.746 -> $GLGSV,3,3,11,86,10,059,24,87,61,019,51,88,51,279,49*51
12:07:22.812 -> $GNGLL,4531.83060,N,07336.88268,W,160722.00,A,A*66
12:07:23.111 -> $GNRMC,160723.00,A,4531.83063,N,07336.88267,W,0.039,,190719,,,A*7F
12:07:23.177 -> $GNVTG,,T,,M,0.039,N,0.071,K,A*31
12:07:23.210 -> $GNGGA,160723.00,4531.83063,N,07336.88267,W,1,12,0.95,68.2,M,-32.7,M,,*46
12:07:23.277 -> $GNGSA,A,3,24,19,28,01,11,22,03,17,,,,,1.73,0.95,1.44*14
12:07:23.343 -> $GNGSA,A,3,79,78,77,87,88,71,,,,,,,1.73,0.95,1.44*1C
12:07:23.410 -> $GPGSV,3,1,11,01,30,051,48,03,38,094,50,06,35,224,,11,19,066,34*7A
12:07:23.476 -> $GPGSV,3,2,11,17,70,315,49,18,06,051,36,19,53,290,48,22,33,067,47*76
12:07:23.576 -> $GPGSV,3,3,11,24,16,311,42,28,65,154,45,30,02,190,*4C
12:07:23.642 -> $GLGSV,3,1,11,65,02,136,22,70,01,002,,71,20,045,33,72,18,096,28*6A
12:07:23.709 -> $GLGSV,3,2,11,77,43,200,29,78,55,290,46,79,15,333,43,81,09,255,20*62
12:07:23.775 -> $GLGSV,3,3,11,86,10,059,24,87,61,019,52,88,51,279,49*52
12:07:23.842 -> $GNGLL,4531.83063,N,07336.88267,W,160723.00,A,A*6B
12:07:24.140 -> $GNRMC,160724.00,A,4531.83067,N,07336.88266,W,0.024,,190719,,,A*71
12:07:24.207 -> $GNVTG,,T,,M,0.024,N,0.045,K,A*3A
12:07:24.240 -> $GNGGA,160724.00,4531.83067,N,07336.88266,W,1,12,0.95,68.5,M,-32.7,M,,*43
12:07:24.306 -> $GNGSA,A,3,24,19,28,01,11,22,03,17,,,,,1.73,0.95,1.44*14
12:07:24.373 -> $GNGSA,A,3,79,78,77,87,88,71,,,,,,,1.73,0.95,1.44*1C
12:07:24.439 -> $GPGSV,3,1,11,01,30,051,47,03,38,094,50,06,35,224,,11,19,066,36*77
12:07:24.506 -> $GPGSV,3,2,11,17,70,315,49,18,06,051,37,19,53,290,49,22,33,067,48*79
12:07:24.572 -> $GPGSV,3,3,11,24,16,311,42,28,65,154,46,30,02,190,*4F
12:07:24.639 -> $GLGSV,3,1,11,65,02,136,22,70,01,002,,71,20,045,32,72,18,096,31*63
12:07:24.705 -> $GLGSV,3,2,11,77,43,200,29,78,55,290,46,79,15,333,44,81,09,255,30*64
12:07:24.772 -> $GLGSV,3,3,11,86,10,059,23,87,61,019,52,88,51,279,49*55
12:07:24.838 -> $GNGLL,4531.83067,N,07336.88266,W,160724.00,A,A*69
12:07:25.137 -> $GNRMC,160725.00,A,4531.83071,N,07336.88265,W,0.015,,190719,,,A*76
12:07:25.204 -> $GNVTG,,T,,M,0.015,N,0.028,K,A*33
12:07:25.237 -> $GNGGA,160725.00,4531.83071,N,07336.88265,W,1,12,0.95,68.7,M,-32.7,M,,*44
12:07:25.303 -> $GNGSA,A,3,24,19,28,01,11,22,03,17,,,,,1.73,0.95,1.44*14
12:07:25.370 -> $GNGSA,A,3,79,78,77,87,88,71,,,,,,,1.73,0.95,1.44*1C
12:07:25.436 -> $GPGSV,3,1,11,01,30,051,47,03,38,094,50,06,35,224,,11,19,066,36*77
12:07:25.503 -> $GPGSV,3,2,11,17,70,315,49,18,06,051,37,19,53,290,48,22,33,067,46*76
12:07:25.569 -> $GPGSV,3,3,11,24,16,311,42,28,65,154,45,30,02,190,*4C
12:07:25.635 -> $GLGSV,3,1,11,65,02,136,20,70,01,002,,71,20,045,33,72,18,096,32*63
12:07:25.702 -> $GLGSV,3,2,11,77,43,200,29,78,55,290,46,79,15,333,44,81,09,255,30*64
12:07:25.768 -> $GLGSV,3,3,11,86,10,059,25,87,61,019,51,88,51,279,49*50
12:07:25.835 -> $GNGLL,4531.83071,N,07336.88265,W,160725.00,A,A*6C
12:07:26.133 -> $GNRMC,160726.00,A,4531.83074,N,07336.88264,W,0.011,,190719,,,A*75
12:07:26.200 -> $GNVTG,,T,,M,0.011,N,0.020,K,A*3F
12:07:26.233 -> $GNGGA,160726.00,4531.83074,N,07336.88264,W,1,12,0.95,69.0,M,-32.7,M,,*45
12:07:26.299 -> $GNGSA,A,3,24,19,28,01,11,22,03,17,,,,,1.73,0.95,1.44*14
12:07:26.366 -> $GNGSA,A,3,79,78,77,87,88,71,,,,,,,1.73,0.95,1.44*1C
12:07:26.432 -> $GPGSV,3,1,11,01,30,051,47,03,38,094,49,06,35,224,,11,19,066,36*7F
12:07:26.499 -> $GPGSV,3,2,11,17,70,315,48,18,06,051,37,19,53,290,48,22,33,067,47*76
12:07:26.565 -> $GPGSV,3,3,11,24,16,311,42,28,65,154,45,30,02,190,*4C
12:07:26.631 -> $GLGSV,3,1,11,65,02,136,17,70,01,002,,71,20,045,32,72,18,096,32*66
12:07:26.698 -> $GLGSV,3,2,11,77,43,200,29,78,55,290,45,79,15,333,43,81,09,255,30*60
12:07:26.764 -> $GLGSV,3,3,11,86,10,059,26,87,61,019,51,88,51,279,49*53
12:07:26.831 -> $GNGLL,4531.83074,N,07336.88264,W,160726.00,A,A*6B
12:07:27.130 -> $GNRMC,160727.00,A,4531.83078,N,07336.88263,W,0.007,,190719,,,A*78
12:07:27.196 -> $GNVTG,,T,,M,0.007,N,0.014,K,A*3F
12:07:27.229 -> $GNGGA,160727.00,4531.83078,N,07336.88263,W,1,12,0.95,69.2,M,-32.7,M,,*4D
12:07:27.296 -> $GNGSA,A,3,24,19,28,01,11,22,03,17,,,,,1.73,0.95,1.44*14
12:07:27.362 -> $GNGSA,A,3,79,78,77,87,88,71,,,,,,,1.73,0.95,1.44*1C
12:07:27.429 -> $GPGSV,3,1,11,01,30,051,46,03,38,094,49,06,35,224,,11,19,066,36*7E
12:07:27.495 -> $GPGSV,3,2,11,17,70,315,49,18,06,051,37,19,53,290,49,22,33,067,47*76
12:07:27.561 -> $GPGSV,3,3,11,24,16,311,42,28,65,154,45,30,02,190,*4C
12:07:27.628 -> $GLGSV,3,1,11,65,02,136,,70,00,001,,71,20,045,32,72,18,096,32*62
12:07:27.694 -> $GLGSV,3,2,11,77,43,200,30,78,55,290,46,79,15,333,44,81,09,255,30*6C
12:07:27.761 -> $GLGSV,3,3,11,86,10,059,27,87,61,019,52,88,51,279,49*51
12:07:27.827 -> $GNGLL,4531.83078,N,07336.88263,W,160727.00,A,A*61
12:07:28.126 -> $GNRMC,160728.00,A,4531.83079,N,07336.88262,W,0.005,,190719,,,A*75
12:07:28.193 -> $GNVTG,,T,,M,0.005,N,0.010,K,A*39
12:07:28.226 -> $GNGGA,160728.00,4531.83079,N,07336.88262,W,1,12,0.95,69.4,M,-32.7,M,,*44
12:07:28.292 -> $GNGSA,A,3,24,19,28,01,11,22,03,17,,,,,1.73,0.95,1.44*14
12:07:28.359 -> $GNGSA,A,3,79,78,77,87,88,71,,,,,,,1.73,0.95,1.44*1C
12:07:28.425 -> $GPGSV,3,1,11,01,30,051,47,03,38,094,50,06,35,224,,11,19,066,34*75
12:07:28.491 -> $GPGSV,3,2,11,17,70,315,49,18,06,051,37,19,53,290,49,22,33,067,47*76
12:07:28.558 -> $GPGSV,3,3,11,24,16,311,42,28,65,154,44,30,02,190,*4D
12:07:28.624 -> $GLGSV,3,1,11,65,02,136,,70,00,001,,71,20,045,31,72,18,096,31*62
12:07:28.691 -> $GLGSV,3,2,11,77,43,200,31,78,55,290,45,79,15,333,44,81,09,255,28*67
12:07:28.757 -> $GLGSV,3,3,11,86,10,059,27,87,61,019,52,88,51,279,49*51
12:07:28.824 -> $GNGLL,4531.83079,N,07336.88262,W,160728.00,A,A*6E
12:07:29.123 -> $GNRMC,160729.00,A,4531.83081,N,07336.88262,W,0.014,,190719,,,A*73
12:07:29.189 -> $GNVTG,,T,,M,0.014,N,0.025,K,A*3F
12:07:29.222 -> $GNGGA,160729.00,4531.83081,N,07336.88262,W,1,12,0.95,69.5,M,-32.7,M,,*43
12:07:29.289 -> $GNGSA,A,3,24,19,28,01,11,22,03,17,,,,,1.73,0.95,1.44*14
12:07:29.355 -> $GNGSA,A,3,79,78,77,87,88,71,,,,,,,1.73,0.95,1.44*1C
12:07:29.422 -> $GPGSV,3,1,11,01,30,051,46,03,38,094,51,06,35,224,,11,19,066,34*75
12:07:29.488 -> $GPGSV,3,2,11,17,70,315,49,18,06,051,38,19,53,290,49,22,33,067,47*79
12:07:29.555 -> $GPGSV,3,3,11,24,16,311,42,28,65,154,45,30,02,190,*4C
12:07:29.621 -> $GLGSV,3,1,11,65,02,136,,70,00,001,,71,20,045,32,72,19,096,32*63
12:07:29.687 -> $GLGSV,3,2,11,77,43,200,31,78,55,290,45,79,15,333,44,81,09,255,27*68
12:07:29.753 -> $GLGSV,3,3,11,86,10,059,27,87,61,019,52,88,51,279,49*51
12:07:29.820 -> $GNGLL,4531.83081,N,07336.88262,W,160729.00,A,A*68
12:07:30.151 -> $GNRMC,160730.00,A,4531.83083,N,07336.88262,W,0.051,,190719,,,A*78
12:07:30.217 -> $GNVTG,,T,,M,0.051,N,0.094,K,A*34
12:07:30.250 -> $GNGGA,160730.00,4531.83083,N,07336.88262,W,1,12,0.95,69.6,M,-32.7,M,,*4A
12:07:30.316 -> $GNGSA,A,3,24,19,28,01,11,22,03,17,,,,,1.73,0.95,1.44*14
12:07:30.383 -> $GNGSA,A,3,79,78,77,87,88,71,,,,,,,1.73,0.95,1.44*1C
12:07:30.449 -> $GPGSV,3,1,11,01,30,051,47,03,38,094,50,06,35,224,,11,19,066,34*75
12:07:30.515 -> $GPGSV,3,2,11,17,70,315,48,18,06,051,37,19,53,290,48,22,33,067,48*79
12:07:30.582 -> $GPGSV,3,3,11,24,16,311,43,28,65,154,45,30,02,190,*4D
12:07:30.648 -> $GLGSV,3,1,11,65,02,136,20,70,00,001,,71,20,045,31,72,19,096,31*61
12:07:30.714 -> $GLGSV,3,2,11,77,43,200,30,78,55,290,45,79,15,333,42,81,09,255,25*6D
12:07:30.781 -> $GLGSV,3,3,11,86,10,059,27,87,61,019,51,88,51,279,48*53
12:07:30.847 -> $GNGLL,4531.83083,N,07336.88262,W,160730.00,A,A*62
12:07:31.113 -> $GNRMC,160731.00,A,4531.83084,N,07336.88262,W,0.058,,190719,,,A*77
12:07:31.213 -> $GNVTG,,T,,M,0.058,N,0.108,K,A*39
12:07:31.246 -> $GNGGA,160731.00,4531.83084,N,07336.88262,W,1,12,0.95,69.7,M,-32.7,M,,*4D
12:07:31.312 -> $GNGSA,A,3,24,19,28,01,11,22,03,17,,,,,1.73,0.95,1.44*14
12:07:31.379 -> $GNGSA,A,3,79,78,77,87,88,71,,,,,,,1.73,0.95,1.44*1C
12:07:31.445 -> $GPGSV,3,1,11,01,30,051,44,03,38,094,49,06,35,224,,11,19,066,33*79
12:07:31.512 -> $GPGSV,3,2,11,17,70,315,48,18,06,051,37,19,53,290,48,22,33,067,46*77
12:07:31.578 -> $GPGSV,3,3,11,24,16,311,42,28,65,154,43,30,02,190,*4A
12:07:31.645 -> $GLGSV,3,1,11,65,02,136,18,70,00,001,,71,20,045,29,72,19,096,21*62
12:07:31.711 -> $GLGSV,3,2,11,77,43,200,30,78,55,290,47,79,15,333,48,81,09,255,25*65
12:07:31.778 -> $GLGSV,3,3,11,86,10,059,28,87,61,019,52,88,51,279,49*5E
12:07:31.844 -> $GNGLL,4531.83084,N,07336.88262,W,160731.00,A,A*64
12:07:32.143 -> $GNRMC,160732.00,A,4531.83085,N,07336.88261,W,0.010,,190719,,,A*7A
12:07:32.210 -> $GNVTG,,T,,M,0.010,N,0.019,K,A*34
12:07:32.243 -> $GNGGA,160732.00,4531.83085,N,07336.88261,W,1,12,0.95,69.8,M,-32.7,M,,*43
12:07:32.309 -> $GNGSA,A,3,24,19,28,01,11,22,03,17,,,,,1.73,0.95,1.44*14
12:07:32.376 -> $GNGSA,A,3,79,78,77,87,88,71,,,,,,,1.73,0.95,1.44*1C
12:07:32.442 -> $GPGSV,3,1,11,01,30,051,44,03,38,094,49,06,35,224,,11,19,066,34*7E
12:07:32.509 -> $GPGSV,3,2,11,17,70,315,49,18,06,051,38,19,53,290,47,22,33,067,45*75
12:07:32.575 -> $GPGSV,3,3,11,24,16,311,42,28,65,154,44,30,02,190,*4D
12:07:32.642 -> $GLGSV,3,1,11,65,02,136,15,70,00,001,,71,20,045,29,72,19,096,22*6C
12:07:32.708 -> $GLGSV,3,2,11,77,43,200,30,78,55,290,47,79,15,333,47,81,09,255,26*69
12:07:32.775 -> $GLGSV,3,3,11,86,10,059,29,87,61,019,53,88,51,279,49*5E
12:07:32.841 -> $GNGLL,4531.83085,N,07336.88261,W,160732.00,A,A*65
12:07:33.140 -> $GNRMC,160733.00,A,4531.83085,N,07336.88260,W,0.017,,190719,,,A*7D
12:07:33.207 -> $GNVTG,,T,,M,0.017,N,0.032,K,A*3A
12:07:33.240 -> $GNGGA,160733.00,4531.83085,N,07336.88260,W,1,12,0.95,69.9,M,-32.7,M,,*42
12:07:33.306 -> $GNGSA,A,3,24,19,28,01,11,22,03,17,,,,,1.73,0.95,1.44*14
12:07:33.373 -> $GNGSA,A,3,79,78,77,87,88,71,,,,,,,1.73,0.95,1.44*1C
12:07:33.439 -> $GPGSV,3,1,11,01,30,051,46,03,38,094,49,06,35,224,,11,19,066,35*7D
12:07:33.506 -> $GPGSV,3,2,11,17,70,315,49,18,06,051,37,19,53,290,49,22,33,067,47*76
12:07:33.572 -> $GPGSV,3,3,11,24,16,311,44,28,65,154,46,30,02,190,*49
12:07:33.638 -> $GLGSV,3,1,11,65,02,136,15,70,00,001,,71,20,045,21,72,19,096,23*65
12:07:33.705 -> $GLGSV,3,2,11,77,43,200,29,78,55,290,46,79,15,333,46,81,09,255,27*60
12:07:33.771 -> $GLGSV,3,3,11,86,10,059,30,87,61,019,53,88,51,279,48*57
12:07:33.838 -> $GNGLL,4531.83085,N,07336.88260,W,160733.00,A,A*65
12:07:34.137 -> $GNRMC,160734.00,A,4531.83085,N,07336.88259,W,0.006,,190719,,,A*70
12:07:34.203 -> $GNVTG,,T,,M,0.006,N,0.012,K,A*38
12:07:34.236 -> $GNGGA,160734.00,4531.83085,N,07336.88259,W,1,12,0.95,70.0,M,-32.7,M,,*4E
12:07:34.303 -> $GNGSA,A,3,24,19,28,01,11,22,03,17,,,,,1.73,0.95,1.44*14
12:07:34.369 -> $GNGSA,A,3,79,78,77,87,88,71,,,,,,,1.73,0.95,1.44*1C
12:07:34.435 -> $GPGSV,3,1,11,01,30,051,47,03,38,094,51,06,35,224,,11,19,066,35*75
12:07:34.502 -> $GPGSV,3,2,11,17,70,315,48,18,06,051,38,19,53,290,49,22,33,067,44*7B
12:07:34.568 -> $GPGSV,3,3,11,24,16,311,43,28,65,154,46,30,02,190,*4E
12:07:34.635 -> $GLGSV,3,1,11,65,02,136,17,70,00,001,,71,20,045,30,72,19,096,24*60
12:07:34.701 -> $GLGSV,3,2,11,77,42,200,28,78,55,290,45,79,15,333,45,81,09,255,30*66
12:07:34.768 -> $GLGSV,3,3,11,86,10,059,31,87,61,019,52,88,51,279,48*57
12:07:34.834 -> $GNGLL,4531.83085,N,07336.88259,W,160734.00,A,A*68
12:07:35.133 -> $GNRMC,160735.00,A,4531.83085,N,07336.88258,W,0.005,,190719,,,A*73
12:07:35.200 -> $GNVTG,,T,,M,0.005,N,0.009,K,A*31
12:07:35.233 -> $GNGGA,160735.00,4531.83085,N,07336.88258,W,1,12,0.95,70.0,M,-32.7,M,,*4E
12:07:35.299 -> $GNGSA,A,3,24,19,28,01,11,22,03,17,,,,,1.73,0.95,1.44*14
12:07:35.366 -> $GNGSA,A,3,79,78,77,87,88,71,,,,,,,1.73,0.95,1.44*1C
12:07:35.432 -> $GPGSV,3,1,11,01,30,051,46,03,38,094,50,06,35,224,,11,19,066,34*74
12:07:35.499 -> $GPGSV,3,2,11,17,70,315,48,18,06,051,38,19,53,290,49,22,33,067,44*7B
12:07:35.565 -> $GPGSV,3,3,11,24,16,311,42,28,65,154,47,30,02,190,*4E
12:07:35.631 -> $GLGSV,3,1,11,65,02,136,18,70,00,001,,71,20,045,29,72,19,096,31*63
12:07:35.698 -> $GLGSV,3,2,11,77,42,200,28,78,55,290,45,79,15,333,45,81,09,255,28*6F
12:07:35.764 -> $GLGSV,3,3,11,86,10,059,31,87,61,019,53,88,51,279,48*56
12:07:35.831 -> $GNGLL,4531.83085,N,07336.88258,W,160735.00,A,A*68
12:07:36.163 -> $GNRMC,160736.00,A,4531.83088,N,07336.88257,W,0.011,,190719,,,A*77
12:07:36.229 -> $GNVTG,,T,,M,0.011,N,0.021,K,A*3E
12:07:36.262 -> $GNGGA,160736.00,4531.83088,N,07336.88257,W,1,12,0.95,70.2,M,-32.7,M,,*4D
12:07:36.329 -> $GNGSA,A,3,24,19,28,01,11,22,03,17,,,,,1.73,0.95,1.44*14
12:07:36.395 -> $GNGSA,A,3,79,78,77,87,88,71,,,,,,,1.73,0.95,1.44*1C
12:07:36.462 -> $GPGSV,3,1,12,01,30,051,47,03,38,094,51,04,,,32,06,35,224,*4D
12:07:36.528 -> $GPGSV,3,2,12,11,19,066,33,17,70,315,49,18,06,051,39,19,53,290,49*71
12:07:36.595 -> $GPGSV,3,3,12,22,33,067,44,24,16,311,42,28,65,154,47,30,02,190,*7C
12:07:36.661 -> $GLGSV,3,1,11,65,02,136,18,70,00,001,,71,20,045,31,72,19,096,29*63
12:07:36.728 -> $GLGSV,3,2,11,77,42,200,27,78,55,290,45,79,15,333,45,81,09,255,27*6F
12:07:36.794 -> $GLGSV,3,3,11,86,10,059,30,87,61,019,53,88,51,279,49*56
12:07:36.861 -> $GNGLL,4531.83088,N,07336.88257,W,160736.00,A,A*69
12:07:37.126 -> $GNRMC,160737.00,A,4531.83090,N,07336.88256,W,0.005,,190719,,,A*7B
12:07:37.193 -> $GNVTG,,T,,M,0.005,N,0.010,K,A*39
12:07:37.226 -> $GNGGA,160737.00,4531.83090,N,07336.88256,W,1,12,0.95,70.4,M,-32.7,M,,*42
12:07:37.293 -> $GNGSA,A,3,24,19,28,01,11,22,03,17,,,,,1.73,0.95,1.44*14
12:07:37.359 -> $GNGSA,A,3,79,78,77,87,88,71,,,,,,,1.73,0.95,1.44*1C
12:07:37.426 -> $GPGSV,3,1,11,01,30,051,46,03,38,094,51,06,35,224,,11,19,066,34*75
12:07:37.492 -> $GPGSV,3,2,11,17,70,315,49,18,06,051,39,19,53,290,49,22,33,067,43*7C
12:07:37.558 -> $GPGSV,3,3,11,24,16,311,41,28,65,154,47,30,02,190,*4D
12:07:37.625 -> $GLGSV,3,1,11,65,02,136,19,70,00,001,,71,20,045,30,72,19,096,28*62
12:07:37.691 -> $GLGSV,3,2,11,77,42,200,27,78,55,290,45,79,15,333,46,81,09,255,26*6D
12:07:37.758 -> $GLGSV,3,3,11,86,10,059,31,87,61,019,53,88,51,279,48*56
12:07:37.824 -> $GNGLL,4531.83090,N,07336.88256,W,160737.00,A,A*60
12:07:38.156 -> $GNRMC,160738.00,A,4531.83090,N,07336.88255,W,0.026,,190719,,,A*76
12:07:38.223 -> $GNVTG,,T,,M,0.026,N,0.048,K,A*35
12:07:38.256 -> $GNGGA,160738.00,4531.83090,N,07336.88255,W,1,12,0.95,70.5,M,-32.7,M,,*4F
12:07:38.322 -> $GNGSA,A,3,24,19,28,01,11,22,03,17,,,,,1.73,0.95,1.44*14
12:07:38.389 -> $GNGSA,A,3,79,78,77,87,88,71,,,,,,,1.73,0.95,1.44*1C
12:07:38.455 -> $GPGSV,3,1,11,01,30,051,46,03,38,094,51,06,35,224,,11,19,066,34*75
12:07:38.522 -> $GPGSV,3,2,11,17,70,315,49,18,06,051,39,19,53,290,49,22,33,067,43*7C
12:07:38.588 -> $GPGSV,3,3,11,24,16,311,41,28,65,154,46,30,02,190,*4C
12:07:38.654 -> $GLGSV,3,1,11,65,02,136,20,70,00,001,21,71,20,045,31,72,19,096,28*6A
12:07:38.721 -> $GLGSV,3,2,11,77,42,200,26,78,55,290,45,79,15,333,46,81,09,255,25*6F
12:07:38.787 -> $GLGSV,3,3,11,86,10,059,31,87,61,019,53,88,51,279,48*56
12:07:38.854 -> $GNGLL,4531.83090,N,07336.88255,W,160738.00,A,A*6C
12:07:39.153 -> $GNRMC,160739.00,A,4531.83091,N,07336.88254,W,0.027,,190719,,,A*76
12:07:39.219 -> $GNVTG,,T,,M,0.027,N,0.050,K,A*3D
12:07:39.252 -> $GNGGA,160739.00,4531.83091,N,07336.88254,W,1,12,0.95,70.6,M,-32.7,M,,*4D
12:07:39.319 -> $GNGSA,A,3,24,19,28,01,11,22,03,17,,,,,1.73,0.95,1.44*14
12:07:39.385 -> $GNGSA,A,3,79,78,77,87,88,71,,,,,,,1.73,0.95,1.44*1C
12:07:39.452 -> $GPGSV,3,1,11,01,30,051,46,03,38,094,51,06,35,224,,11,19,066,34*75
12:07:39.518 -> $GPGSV,3,2,11,17,70,315,49,18,06,051,39,19,53,290,48,22,33,067,44*7A
12:07:39.585 -> $GPGSV,3,3,11,24,16,311,41,28,65,154,46,30,02,190,*4C
12:07:39.651 -> $GLGSV,3,1,11,65,02,136,20,70,00,001,21,71,20,045,25,72,19,096,29*6E
12:07:39.718 -> $GLGSV,3,2,11,77,42,200,25,78,55,290,45,79,15,333,46,81,09,255,25*6C
12:07:39.784 -> $GLGSV,3,3,11,86,10,060,30,87,61,019,53,88,51,279,48*5D
12:07:39.850 -> $GNGLL,4531.83091,N,07336.88254,W,160739.00,A,A*6D
12:07:40.149 -> $GNRMC,160740.00,A,4531.83091,N,07336.88252,W,0.046,,190719,,,A*79
12:07:40.216 -> $GNVTG,,T,,M,0.046,N,0.086,K,A*31
12:07:40.249 -> $GNGGA,160740.00,4531.83091,N,07336.88252,W,1,12,0.95,70.7,M,-32.7,M,,*44
12:07:40.315 -> $GNGSA,A,3,24,19,28,01,11,22,03,17,,,,,1.73,0.95,1.44*14
12:07:40.382 -> $GNGSA,A,3,79,78,77,87,88,71,,,,,,,1.73,0.95,1.44*1C
12:07:40.448 -> $GPGSV,3,1,11,01,30,051,46,03,38,094,51,06,35,224,,11,19,066,32*73
12:07:40.515 -> $GPGSV,3,2,11,17,70,315,49,18,06,051,38,19,53,290,49,22,33,067,43*7D
12:07:40.581 -> $GPGSV,3,3,11,24,16,311,41,28,65,154,46,30,02,190,18*45
12:07:40.648 -> $GLGSV,3,1,11,65,02,136,20,70,00,001,20,71,20,045,27,72,19,096,29*6D
12:07:40.714 -> $GLGSV,3,2,11,77,42,200,24,78,55,290,45,79,15,333,46,81,09,255,25*6D
12:07:40.781 -> $GLGSV,3,3,11,86,10,060,30,87,61,019,53,88,51,279,48*5D
12:07:40.847 -> $GNGLL,4531.83091,N,07336.88252,W,160740.00,A,A*65
12:07:41.146 -> $GNRMC,160741.00,A,4531.83094,N,07336.88249,W,0.031,,190719,,,A*77
12:07:41.213 -> $GNVTG,,T,,M,0.031,N,0.057,K,A*3D
12:07:41.246 -> $GNGGA,160741.00,4531.83094,N,07336.88249,W,1,12,0.95,70.7,M,-32.7,M,,*4A
12:07:41.312 -> $GNGSA,A,3,24,19,28,01,11,22,03,17,,,,,1.73,0.95,1.44*14
12:07:41.379 -> $GNGSA,A,3,79,78,77,87,88,71,,,,,,,1.73,0.95,1.44*1C
12:07:41.445 -> $GPGSV,3,1,11,01,30,051,46,03,38,094,51,06,35,224,,11,19,066,34*75
12:07:41.512 -> $GPGSV,3,2,11,17,70,315,50,18,06,051,38,19,53,290,49,22,33,067,43*75
12:07:41.578 -> $GPGSV,3,3,11,24,16,311,41,28,65,154,47,30,02,190,19*45
12:07:41.644 -> $GLGSV,3,1,11,65,02,136,18,70,00,001,18,71,20,045,28,72,19,096,31*6B
12:07:41.711 -> $GLGSV,3,2,11,77,42,200,25,78,55,290,45,79,15,333,46,81,09,255,27*6E
12:07:41.777 -> $GLGSV,3,3,11,86,10,060,29,87,61,019,53,88,51,279,48*55
12:07:41.844 -> $GNGLL,4531.83094,N,07336.88249,W,160741.00,A,A*6B
12:07:42.143 -> $GNRMC,160742.00,A,4531.83096,N,07336.88245,W,0.048,,190719,,,A*74
12:07:42.209 -> $GNVTG,,T,,M,0.048,N,0.089,K,A*30
12:07:42.242 -> $GNGGA,160742.00,4531.83096,N,07336.88245,W,1,12,0.95,70.8,M,-32.7,M,,*48
12:07:42.309 -> $GNGSA,A,3,24,19,28,01,11,22,03,17,,,,,1.73,0.95,1.44*14
12:07:42.375 -> $GNGSA,A,3,79,78,77,87,88,71,,,,,,,1.73,0.95,1.44*1C
12:07:42.442 -> $GPGSV,3,1,11,01,30,051,43,03,38,094,52,06,35,224,,11,19,066,34*73
12:07:42.508 -> $GPGSV,3,2,11,17,70,315,50,18,06,051,35,19,53,290,49,22,33,067,43*78
12:07:42.575 -> $GPGSV,3,3,11,24,16,311,41,28,65,154,46,30,02,190,20*4E
12:07:42.641 -> $GLGSV,3,1,11,65,02,136,17,70,00,001,15,71,20,045,26,72,19,096,31*67
12:07:42.708 -> $GLGSV,3,2,11,77,42,200,26,78,55,290,45,79,15,333,45,81,09,255,29*60
12:07:42.774 -> $GLGSV,3,3,11,86,10,060,30,87,61,019,53,88,51,279,48*5D
12:07:42.841 -> $GNGLL,4531.83096,N,07336.88245,W,160742.00,A,A*66
12:07:43.140 -> $GNRMC,160743.00,A,4531.83096,N,07336.88241,W,0.009,,190719,,,A*74
12:07:43.206 -> $GNVTG,,T,,M,0.009,N,0.017,K,A*32
12:07:43.239 -> $GNGGA,160743.00,4531.83096,N,07336.88241,W,1,12,0.95,70.8,M,-32.7,M,,*4D
12:07:43.305 -> $GNGSA,A,3,24,19,28,01,11,22,03,17,,,,,1.72,0.95,1.44*15
12:07:43.372 -> $GNGSA,A,3,79,78,77,87,88,71,,,,,,,1.72,0.95,1.44*1D
12:07:43.438 -> $GPGSV,3,1,11,01,30,051,46,03,38,094,52,06,35,224,,11,19,066,34*76
12:07:43.505 -> $GPGSV,3,2,11,17,70,315,50,18,06,051,37,19,53,290,49,22,33,067,43*7A
12:07:43.571 -> $GPGSV,3,3,11,24,16,311,41,28,65,154,47,30,02,190,20*4F
12:07:43.638 -> $GLGSV,3,1,11,65,02,136,17,70,00,001,11,71,20,045,25,72,19,096,32*63
12:07:43.704 -> $GLGSV,3,2,11,77,42,200,25,78,55,290,45,79,15,333,44,81,09,255,26*6D
12:07:43.771 -> $GLGSV,3,3,11,86,10,060,30,87,61,019,53,88,51,279,48*5D
12:07:43.837 -> $GNGLL,4531.83096,N,07336.88241,W,160743.00,A,A*63
12:07:44.136 -> $GNRMC,160744.00,A,4531.83098,N,07336.88237,W,0.010,,190719,,,A*74
12:07:44.203 -> $GNVTG,,T,,M,0.010,N,0.018,K,A*35
12:07:44.236 -> $GNGGA,160744.00,4531.83098,N,07336.88237,W,1,12,0.95,70.9,M,-32.7,M,,*44
12:07:44.302 -> $GNGSA,A,3,24,19,28,01,11,22,03,17,,,,,1.72,0.95,1.44*15
12:07:44.369 -> $GNGSA,A,3,79,78,77,87,88,71,,,,,,,1.72,0.95,1.44*1D
12:07:44.435 -> $GPGSV,3,1,11,01,30,051,46,03,38,094,52,06,35,224,,11,19,066,34*76
12:07:44.501 -> $GPGSV,3,2,11,17,70,315,50,18,06,051,38,19,53,290,49,22,33,067,43*75
12:07:44.568 -> $GPGSV,3,3,11,24,16,311,41,28,65,154,47,30,02,190,20*4F
12:07:44.634 -> $GLGSV,3,1,11,65,02,136,16,70,00,001,09,71,20,045,24,72,19,096,31*69
